id,name,latitude,longitude,feature_code,elevation
1115008,Zircho Zom,36.86813,73.05558,MT,5472
1115041,Kuh-e Goybaz,36.20847,71.35944,MT,5064
1120666,Koh-e Zhibchul,35.61647,70.36728,MT,5006
1120968,Koh-e Zard,36.10709,70.3782,MT,5220
1121422,Koh-e Yaghardah,36.91797,71.38669,MT,5338
1121705,Koh-e Warmana,35.77683,70.51431,MT,5644
1121743,Koh-e War,35.88256,70.19727,MT,5165
1122180,Koh-e Tuloksa,35.86603,71.0808,MT,6435
1122367,Koh-e Toluksay,35.72756,71.06427,MT,5364
1122635,Tawask Ghar,36.06117,71.0938,MT,5443
1123056,Koh-e Tal-e Sabz,36.15923,70.5622,MT,5375
1123062,Koh-e Talik Siyah,36.00827,70.13908,MT,5376
1123626,Koh-e Surai Begada,35.88672,71.28776,MT,5074
1125529,Koh-e Sharshar,35.81132,70.03599,MT,5003
1125725,Koh-e Shal-e Wakil,35.5681,70.34209,MT,5033
1125804,Koh-e Shakaraw,36.09191,70.44268,MT,5738 
1126782,Koh-e Sar-e Oshnugan,36.30254,70.46047,MT,5519
1126790,Koh-e Sar-e Tund,35.92547,70.34517,MT,5011
1126791,Koh-e Sar-e Tund,35.74979,70.48108,MT,6001
1126872,Sar-e Koh-e Poloksho,35.84826,70.49487,MT,5636
1127012,Koh-e Sar-e Yamak,36.06008,70.49259,MT,5139
1127341,Sar-e Chap Darah,36.17684,70.48319,MT,5513
1127565,Koh-e Sang-e Ujne,36.13211,70.66911,MT,5458
1127657,Koh-e Sang-e Bangi,35.70802,70.49954,MT,5792
1127926,Sakar Sar,36.89867,74.24525,MT,6271
1128067,Sad Ishtragh,36.47714,71.63726,MT,5856
1128184,Koh-e Ruyshuwuk,35.78048,70.33246,MT,5116
1128449,Koh-e Razar,36.46355,71.22892,MT,5081
1128466,Koh-e Rowkan,35.93766,70.20536,MT,5310
1128477,Ratkhut Zom,36.4475,71.5425,MT,5670
1128571,Koh-e Rakhoy,36.02902,70.47449,MT,5275
1130125,Koh-e Qalat,36.24953,70.28367,MT,5162
1131002,Koh-e Pashalzar,35.89208,70.10283,MT,5051
1131115,Koh-e Parandaz,36.11628,70.09776,MT,5087
1131270,Pakawalpit,35.58417,71.06417,MT,5334
1131455,Koh-e Oshnugan,36.20788,70.47265,MT,5288
1131568,Uchukgal Ghar,35.44822,71.02935,MT,5160
1131657,Noshaq,36.43473,71.83974,MT,7485
1132205,Koh-e Nawak,35.68155,70.35247,MT,5129
1133368,Koh-e Miyan Koh,36.77797,71.36854,MT,5211
1133393,Koh-e Mianah-ye Anjuman,35.83407,70.37338,MT,5253
1133535,Koh-e Menjan,35.89113,71.06374,MT,6130
1134578,Koh-e Lolukgul,35.795,71.15063,MT,5460
1134874,Koh-e Lambasah,35.91662,70.75266,MT,5758
1135911,Koh-e Khwarkhadi,35.87976,70.60263,MT,5217
1135968,Koh-e Khush Darah,36.84995,71.30735,MT,5233
1136805,Koh-e Khawiyah,35.76839,70.89404,MT,5249
1137427,Khabi Ghar,36.01104,71.02422,MT,5211
1137448,Koh-e Keshni Khan,36.56667,71.9,MT,5950
1137626,Koh-e Katwik,36.38173,70.4195,MT,5085
1138256,Koh-e Kapika,35.99451,70.22543,MT,5206
1138443,Koh-e Kamanduk,35.91797,70.2925,MT,5156
1138472,Ghat-e Kalyow,36.41358,70.47822,MT,5226
1138615,Koh-e Kalaminar,35.545,69.6943,MT,5067
1138760,Koh-e Kaj Aw,36.37182,70.59909,MT,5355
1139689,Koh-e Jalgia,35.80085,70.46283,MT,5203
1139761,Koh-e Jaghdawek,36.49555,71.26232,MT,5135
1141322,Ghat-e Howz-e Kabud,35.81696,70.67696,MT,5716
1141343,Gharqab,36.88333,73.23333,MT,5628
1142125,Koh-e Gabar Awuk,35.61039,70.52778,MT,5225
1142256,Faraz,36.35015,70.8811,MT,5181
1143798,Koh-e Dasht Siki,36.31663,71.47888,MT,5464
1143802,Koh-e Dasht Kah,36.12027,70.9837,MT,5568
1143824,Koh-e Dasht-e Madyar,35.98345,70.26916,MT,5432
1144138,Koh-e Darahchah Bayg,36.30847,71.05318,MT,5510
1144867,Koh-e Chuk Shakh,36.80039,71.42945,MT,5467
1145276,Charukh Ghar,36.0331,71.15664,MT,5315
1145433,Koh-e Chap Darah,36.20304,71.23362,MT,5106
1145958,Koh-e Tsingilik,35.63599,70.45883,MT,5022
1146348,Koh-e Biland,36.16557,71.00507,MT,5401
1147224,Kuh-e Bandaka,36.17917,70.98333,MT,6812
1147871,Koh-e Azhdarah,35.86596,70.05297,MT,5064
1148037,Koh-e Awdak,36.16065,71.03356,MT,5336
1149642,Koh-e Ab Darah,35.89448,69.99059,MT,5007
1427522,Koh-e Kapikah,36.009,70.2572,MT,5211
1427544,Koh-e Sokhtah,36.03764,70.42278,MT,5743
1427545,Koh-e Sangbunah,36.01584,70.41329,MT,5503
1427546,Koh-e Kasha,36.02417,70.42858,MT,5275
1427580,Koh-e Dasht-e Kalan,36.09143,70.79656,MT,5109
1427590,Koh-e Kan-e Zamch,36.11402,70.6682,MT,5208
1427606,Koh-e Daygtora Shan,36.10017,70.56126,MT,5286
1427607,Koh-e Khosh Darah,36.12148,70.56507,MT,5035
1427608,Koh-e Chap Darah,36.10856,70.51258,MT,5517
1427610,Koh-e Rubaghon,36.06373,70.43509,MT,5723
1427615,Koh-e Amlan,36.10274,70.36358,MT,5221
1427652,Koh-e Kharghan,36.19234,70.31082,MT,5122
1427662,Koh-e Nar,36.2026,70.4032,MT,5141
1427664,Koh-e Chap Darah,36.18453,70.42258,MT,5170
1427667,Koh-e Duab,36.13981,70.47389,MT,5061
1427671,Kotal-e Piw,36.14754,70.53484,MT,5841
1427672,Koh-e Kirichak,36.14008,70.59312,MT,5123
1427677,Koh-e Khakistarak Dahanak,36.15304,70.66927,MT,5862
1427678,Koh-e Maghzar-e Muriar Beg,36.18001,70.68302,MT,5757
1427680,Koh-e Silikayik,36.15211,70.7079,MT,5021
1427688,Koh-e Chopikah,36.21079,70.69294,MT,5390
1427690,Koh-e Ma'dan-e Surb,36.22776,70.73799,MT,5317
1427711,Koh-e Munda,36.3014,70.42839,MT,5296
1427712,Pas-e Ambak,36.29012,70.39036,MT,5159
1427714,Koh-e Sar-e 'Arus,36.2585,70.43273,MT,5448
1427717,Koh-e Kafarzadah,36.22575,70.39015,MT,5187
1427718,Koh-e Hasan,36.22145,70.35443,MT,5315
1427719,Koh-e Khash Gaw,36.23962,70.32891,MT,5413
1427720,Koh-e Kaj Darah,36.23837,70.38211,MT,5031
1427731,Koh-e Kajamulan,36.25799,70.3327,MT,5124
1427735,Ghat-e Bukhar,36.23079,70.2512,MT,5011
1427755,Kuh-e Chap Darreh,36.33306,70.38167,MT,5236
1427756,Koh-e Sar-e Sobay,36.32261,70.3428,MT,5077
1427757,Koh-e Bazingar,36.33119,70.32008,MT,5061
1427767,Koh-e Sar-e Oshnogan,36.34752,70.44611,MT,5267
1427768,Koh-e Sar-e Oshnogan,36.32828,70.53498,MT,5215
1427769,Koh-e 'Arus,36.37877,70.6417,MT,5063
1428970,Day-e Argisht,35.49614,70.74097,MT,5090
1429395,Shahak,35.48524,69.61014,MT,5126
1429447,Koh-e Maligaram,35.18177,69.64476,MT,5009
1429571,Ghowch,35.39467,69.90113,MT,5055
1429572,Siyah Khar Now,35.38326,69.89457,MT,5012
1451408,Koh-e Sar-e Darah-ye Awdar,35.82163,70.51485,MT,5424
1451411,Koh-e Howz-e Kabud,35.87031,70.61406,MT,5215
1454116,Gora Akram,36.3175,71.51917,MT,5133
1455958,Koh-e Tund-e Ganda,35.97777,70.41464,MT,5017
1455993,Koh-e Sipar,35.80695,70.37964,MT,5262
1455994,Koh-e Poghsok,35.74469,70.3908,MT,5606
1455999,Koh-e Wurzak,35.74873,70.27202,MT,5262
1456003,Sar-e Sepirmay,35.73979,70.35914,MT,5610
1456005,Koh-e Sepirmay,35.71647,70.3803,MT,5310
1456011,Koh-e Chashmah,35.70021,70.34204,MT,5263
1456015,Koh-e Maldaygmay,35.68056,70.26129,MT,5413
1456058,Kamar-e Safed,35.60128,70.11102,MT,5008
1456059,Band-e Ghar,35.625,70.15337,MT,5422
1456060,Naw-e Kalan,35.61826,70.18413,MT,5103
1456067,Mungashayr,35.56929,70.17293,MT,5185
1456080,Koh-e Sar-e Qorghu,35.96371,70.11027,MT,5159
1456096,Koh-e Azhdarah,35.79275,70.09893,MT,5002
1456097,Kotal-e Zard,35.79696,70.04613,MT,5016
1456100,Kotal-e Paghar,35.67354,70.46139,MT,5086
1465387,Koh-e Aqblis,37.14925,73.86893,MT,5381
1465388,Koh-e Qarah Tash,37.10757,73.86622,MT,5270
1466650,Koh-e Ghara,36.04613,71.08925,MT,5520
1466658,Maley Ghara,36.10979,71.08774,MT,5006
1466682,Koh-e Moradbayg,36.10856,71.1669,MT,5257
1466714,Koh-e Pirayghost,36.09672,70.80067,MT,5000
1466716,Koh-e Khoghesht,36.12316,70.82556,MT,5422
1466718,Koh-e Derawah,36.1424,70.83377,MT,5598
1466720,Koh-e Shakh-e Safed,36.1585,70.84493,MT,5610
1466725,Koh-e Bandaka,36.17917,70.98333,MT,6812
1466728,Koh-e Dasht Ka,36.12758,70.93638,MT,5167
1466736,Koh-e Liwzakhm,36.18917,71.06806,MT,5358
1466795,Kuh-e Mianeh,36.20972,70.93667,MT,5277
1466799,Koh-e Shakh-e Safed,36.19519,70.86234,MT,5762
1466806,Koh-e Mianah,36.18188,70.91831,MT,5638
1466817,Koh-e Sar-e Maidan,36.22974,70.88825,MT,5712
1466822,Koh-e Jurm Darah,36.21459,71.07134,MT,5277
1466825,Koh-e Walarkhug,36.26347,71.06175,MT,5203
1466827,Koh-e Spiyar,36.26969,71.03465,MT,5312
1466830,Marghzar,36.31112,70.90038,MT,5781
1466831,Koh-e Tondok,36.32811,70.83576,MT,5018
1466833,Kaj Ab,36.34157,70.91315,MT,5002
1466834,Koh-e Sar-e Darah-ye Jokham,36.32875,70.92686,MT,5880
1467108,Koh-e Milghi Dashk,36.12499,71.13738,MT,5297
1467109,Koh-e Goy Baz,36.20839,71.35028,MT,5740
1467110,Koh-e Sar-e Chap Darah,36.2049,71.29169,MT,5720
1467111,Koh-e Patkhodek,36.22353,71.24692,MT,5390
1467115,Koh-e Armazdok,36.29257,71.12188,MT,5197
1467121,Mianah Koh,36.25255,71.27137,MT,5114
1467122,Koh-e Chap Kotalah,36.26702,71.30512,MT,5770
1467123,Koh-e Shakh-e Zya',36.26846,71.35488,MT,5335
1467124,Koh-e Berizha,36.28478,71.38368,MT,5052
1467125,Koh-e Wuchopar,36.32123,71.34249,MT,5454
1467144,Koh-e Tindosar,36.36583,71.07307,MT,5287
1467147,Wastik,36.3551,70.94676,MT,5146
1467148,Band-e Darah-ye Bazar,36.39304,70.92471,MT,5042
1468648,Koh-e Band-e Darakht,36.23797,71.40245,MT,5169
1468650,Koh-e Talah,36.28537,71.45254,MT,5274
1468651,Gora Akram,36.33917,71.49528,MT,5208
1469336,Koh-e Khujo,36.07202,70.11667,MT,5072
1469354,Koh-e Pazh,36.0639,70.17081,MT,5106
1469777,Koh-e Yeja,35.98248,71.2638,MT,5051
1469900,Ushtoruk Gegran,35.71779,71.26434,MT,5124
1469902,Koh-e Agintsi Chani,35.68766,71.24383,MT,5239
1469907,Koh-e Tsanigal,35.69281,71.05201,MT,5258
1469908,Shodramboda,35.61175,71.04126,MT,5475
1470502,Koh-e Sharshar,35.79177,69.99522,MT,5017
1470510,Koh-e Khirs Khanah,35.9816,69.99415,MT,5117
1470513,Koh-e Qol Barsang,35.93051,69.94272,MT,5257
1476483,Koh-e Yighdak,35.86031,70.81161,MT,5035
1476491,Koh-e Sodeghah,35.89628,70.81546,MT,5162
1476492,Koh-e Pistaw,35.91253,70.83392,MT,5363
1476493,Koh-e Ishakh,35.96123,70.82416,MT,5252
1476498,Koh-e Pikah,35.90622,70.95695,MT,5511
1476514,Shugur Gul,35.54395,70.98299,MT,5070
1476518,Koh-e Khwajah Showgah,35.7393,70.96564,MT,5482
1476542,Koh-e Dudargi,35.67578,70.58337,MT,5430
1476544,Koh-e Spi Awgah,35.73414,70.639,MT,5618
1476545,Koh-e Isma'il,35.76855,70.55254,MT,5559
1476547,Koh-e Piryakh,35.77666,70.61431,MT,5040
1476549,Koh-e Firazin,35.75993,70.7287,MT,5392
1476550,Koh-e Wighi,35.76861,70.74656,MT,5062
1476551,Koh-e Chap Darah,35.80904,70.71557,MT,5319
1476553,Koh-e Qalat-e Shakh,35.81237,70.56043,MT,5251
1476555,Koh-e Rekhnenak,35.81162,70.61395,MT,5059
1476563,Koh-e Lorwah,35.89187,70.68726,MT,5416
1476571,Koh-e Rushki,35.92322,70.59267,MT,5143
1476578,Koh-e Polokshu,35.89146,70.51127,MT,5107
7035401,Koh-e Aghak,36.95334,73.36528,MT,5150
7035417,Koh-e Rahman Kot,36.97923,73.7134,MT,5401
7101583,Koh-e Yil Darah,37.813,71.47208,MT,5014
7101591,Koh-e Tishal Darah,37.86023,71.5313,MT,5190
7457572,Lunkho,36.77997,72.41576,MT,6872
7457619,Wakhikan Rah,36.75194,72.32218,MT,5681
7526528,Kalyow,36.39829,70.55282,MT,5226
7529991,Koh-e Shaykh Zard,35.91136,69.96968,MT,5212
10999498,Jaru Dir,36.45844,71.69084,MT,5356
11041375,Lupsup,36.91347,73.67608,MT,5699
12076681,Baba Tungi,36.87744,72.95881,MT,6513
3832469,Cerro Vizcachera,-25.19982,-67.32824,MT,5043
3832906,Cerro Vicunorco,-25.91254,-66.85333,MT,5224
3832919,Cerro Vicunahuasi,-22.23333,-66.75,MT,5152
3833003,Cerro Verde,-24.29961,-66.60531,MT,5419
3833088,Cerro Veladero,-27.91667,-68.95,MT,5533
3833236,Cerro Vallecito,-26.20993,-68.31744,MT,6092
3833257,Cerro del Valle,-32.20953,-69.60606,MT,5062
3833295,Cerro de Vacas Heladas,-29.87851,-69.89613,MT,5374
3833470,Cerro Tuzgle,-24.05631,-66.47894,MT,5500
3833686,Cerro Tres Rios,-26.12628,-66.17495,MT,5014
3833824,Nevado Tres Cruces,-27.0981,-68.77905,MT,6749
3834169,Cerro del Toro,-29.12993,-69.78687,MT,6168
3834242,Cerro Tolosa,-32.77052,-70.04005,MT,5103
3834698,Cerro del Tambillo,-32.30475,-69.68109,MT,5615
3834918,Cerro Sur Bayo,-24.53572,-68.40936,MT,5343
3835062,Cerro Sosneado,-34.75357,-69.97185,MT,5177
3835169,Cerro Socompa Caipis,-24.49121,-68.30877,MT,5175
3835271,Cerro Silla,-24.78928,-68.56475,MT,5287
3836403,Cerro Santa Clara,-33.17453,-69.70923,MT,5036
3836711,Nevado de San Pedro,-22.93333,-66.96667,MT,5618
3836907,Cerro San Miguel,-24.53599,-66.13224,MT,5622
3837208,Cerro San Juan,-33.46922,-69.81537,MT,6148
3838243,Cerro Salle,-22.48515,-66.76699,MT,5443
3838283,Cerro Salin,-24.32847,-68.06734,MT,6029
3838379,Cerro Saladillo,-24.47637,-66.2475,MT,5294
3838491,Cerro Rumibola,-24.5604,-66.33324,MT,5405
3838578,Cerro Rosario,-22.83333,-66.63333,MT,5475
3838602,Cerro Rosado,-23.97833,-65.93992,MT,5039
3838853,Cerro Rio Grande,-25.49558,-68.33464,MT,5070
3839037,Cerro del Rincon,-24.03495,-67.3225,MT,5449
3839160,Cerro Remate,-24.38001,-66.4875,MT,5137
3839330,Morro Rasquido,-27.24675,-68.30486,MT,5500
3839463,Cerro las Raices,-30.05826,-69.6058,MT,5122
3839481,Morro Rabicano,-33.31413,-69.98266,MT,5306
3839510,Cerro Quironcolo,-24.37373,-66.85671,MT,5174
3839678,Morro del Quemado,-24.83226,-66.40472,MT,6147
3839706,Nevado Queva,-24.3078,-66.7325,MT,6097
3839889,Cerro Puntiagudo,-27.13333,-68.81667,MT,5550
3839890,Cerro Puntiagudo,-25.2,-68.5,MT,5180
3839987,Cerro de la Punta,-25.34461,-68.40468,MT,5059
3840014,Cerro Pululos,-22.60254,-66.80047,MT,5021
3840752,Cerro Portezuelo,-24.28913,-65.67904,MT,5417
3840787,Cerro Poquis,-23.0045,-66.94766,MT,5218
3840887,Nevado el Plomo,-33.10387,-70.06554,MT,6070
3840929,Cerro del Plata,-33.0047,-69.44107,MT,5433
3840961,Monte Pissis,-27.7586,-68.79913,MT,6882
3841324,Cerro Picos del Barroso,-34.28009,-70.05087,MT,5073
3841540,Cerro del Penon,-25.28435,-68.42098,MT,5059
3841575,Cerro de las Penas Blancas,-24.6083,-66.33203,MT,5451
3841670,Cerro Peinado,-26.6216,-68.11522,MT,5740
3841783,Cerro de los Patos,-27.28333,-68.83333,MT,6239
3841784,Cerro Patos,-25.47387,-68.09055,MT,5574
3841801,Cerro Pata del Indio,-30.27524,-69.63976,MT,5169
3841815,Nevado de Pastos Grandes,-24.28293,-66.72774,MT,5528
3842347,Cerro Pajonal,-25.45,-68.3,MT,5500
3842379,Cerro Pairique,-22.93333,-66.81667,MT,5058
3842449,Cerro Pabellon,-26.79375,-68.13614,MT,5384
3842622,Cerro Onas,-25.44602,-68.00048,MT,5770
3842702,Cerro Ojo de las Lozas,-27.10857,-68.27085,MT,5247
3842954,Cerro Penon,-26.7702,-68.41854,MT,5124
3843118,Sierra Nevada de Lagunas Bravas,-26.48,-68.58,MT,6127
3843150,Cerro Negro Overo,-28.93931,-67.82354,MT,5548
3843173,Cerro Negro de la Laguna Verde,-27.70413,-68.54708,MT,5715
3843198,Filo Negro,-26.5132,-67.87814,MT,5023
3843254,Cerro Negro,-33.46081,-69.69855,MT,5812
3843316,Cerro Negro,-25.01667,-68.4,MT,5062
3843490,Cerro del Nacimiento del Jaguee,-27.75,-68.75,MT,5553
3843491,'Cerro del Nacimiento,-27.19406,-68.56015,MT,6436
3843694,Cerro Moraya,-23.00293,-66.27215,MT,5013
3843929,Nevado de Mondaca,-30.08745,-69.78594,MT,5041
3844025,Cerro Mojones,-25.65432,-67.35622,MT,5659
3844212,Cerro de las Minas,-27.19256,-66.08019,MT,5083
3844397,Cerro Mercedario,-31.97889,-70.11277,MT,6770
3844452,Cerro Mellado,-24.59332,-68.26805,MT,5112
3844471,Cumbre de Mejicana,-29.05,-67.85,MT,5064
3844801,Cerro Marmolejo,-33.73401,-69.87826,MT,6108
3845166,Cerro Malcante,-25.06722,-65.84452,MT,5032
3845217,Cerro de la Majadita,-30.41667,-69.73333,MT,6280
3845299,Cerro Macon,-24.49461,-67.27761,MT,5284
3845362,Cerro Luracatao,-25.17196,-66.54969,MT,5157
3845439,Alto Lozano,-24.00334,-65.72482,MT,5112
3845950,Cerro Los Mogotes,-28.61506,-69.57655,MT,5215
3846841,Cumbre de la Linea,-26.80973,-68.34711,MT,5606
3846871,Cerro Lina,-23.03571,-66.85539,MT,5021
3846893,Cerro Lila,-25.55686,-68.07268,MT,5756
3846955,Sierra Leon Muerto,-25.93011,-66.84965,MT,5155
3846960,Cerro Leon Muerto,-26.11665,-66.85782,MT,5328
3846989,Alto de los Leones,-33.00851,-70.13475,MT,5400
3847009,Cerro Leon Chico,-26.14572,-66.85142,MT,5140
3847394,Cumbre del Laudo,-26.50541,-68.52546,MT,6152
3847744,Cerro Las Tortolas,-29.93432,-69.90041,MT,6160
3847965,Cerro Las Palas,-29.03333,-69.76667,MT,5052
3849119,Cerro de La Ramada,-32.09032,-69.98449,MT,5944
3849120,Cerro Ramadas,-22.2,-66.61667,MT,5500
3850893,Cerros Laguna Verde,-25.41667,-68.0,MT,5424
3850904,Cerro de Lagunas Frias,-27.52877,-68.41361,MT,5178
3850918,Cerro Laguna Pedernal,-25.34475,-68.28768,MT,5313
3850945,Cerro Laguna Escondida,-26.60399,-68.4794,MT,5868
3850980,Cerro Laguna Blanca Norte,-26.43441,-67.06774,MT,5715
3851008,Cerro de la Laguna,-34.11428,-69.62694,MT,5037
3853408,Cerro Juere Grande,-24.95,-66.6,MT,5163
3853803,Cerro Ingamayo,-24.65782,-66.40781,MT,5476
3853870,Cerro de Incahuasi,-27.03382,-68.29574,MT,6621
3853873,Cerro Incahuasi,-26.39938,-67.77288,MT,6621
3853886,Cerro Inca,-24.59947,-68.49539,MT,5620
3853893,Cerro Iman,-29.22985,-69.4729,MT,5428
3854346,Cerro Hermoso,-23.43605,-65.52931,MT,5093
3854897,Cerro Granada Segundo,-22.55239,-66.54026,MT,5359
3854900,Cerro Granada Primero,-22.58291,-66.53068,MT,5152
3854928,Cerro Gordo,-25.71338,-66.64837,MT,5022
3855093,Cerro General Manuel Belgrano,-29.01392,-67.82877,MT,6250
3855280,Cerro Galan,-25.9392,-66.92266,MT,5912
3855671,Cerro Falso Azufre,-26.79974,-68.35958,MT,5906
3856061,Cerro Escorial,-25.08,-68.37,MT,5447
3857527,Nevado El Muerto,-27.06667,-68.48333,MT,6488
3857785,Cerro El Libertador,-24.93229,-66.39107,MT,6380
3858317,Cerro El Condor,-26.63169,-68.36058,MT,6373
3858356,Nevado de El Clavillo,-27.21305,-66.07108,MT,5069
3859135,Cerro de las Dos Lagunas,-27.25252,-66.14723,MT,5214
3859161,Cerro Dos Conos,-26.80323,-68.27704,MT,5858
3859382,Cerro Diamante,-26.0082,-67.09313,MT,5436
3859383,Cerro Diamante,-25.78918,-66.84956,MT,5284
3859721,Cerro Cuerno,-32.62489,-70.06502,MT,5258
3859736,Cerro Cuchimango,-28.11219,-68.4316,MT,5081
3859857,Crucesniyoc,-22.2,-66.68333,MT,5054
3859932,Cerro Coyaguaima,-22.91667,-66.58333,MT,5614
3860018,Cerro Cortaderal,-24.24629,-65.61321,MT,5312
3860418,Nevado de Concha Argolla,-25.71853,-67.00068,MT,5261
3860458,Cerro Come Caballos,-28.22631,-69.3911,MT,5219
3860622,Cerro Colorado,-28.3087,-69.51463,MT,5145
3860625,Cerro Colorado,-25.92993,-67.09185,MT,5294
3860629,Cerro Colorado,-24.05558,-66.59546,MT,5128
3860853,Cerro Colla,-22.74022,-66.96574,MT,5073
3860888,Nevado de Colangueil,-29.86985,-69.58911,MT,5236
3860909,Cerro de la Coipa,-27.62552,-68.29772,MT,5132
3861112,Cerro Cienaga Pelada,-26.28333,-66.51667,MT,5071
3861117,Cerro Cienaga,-24.76567,-66.41284,MT,6030
3861172,Cerro Chusca,-26.14596,-66.21912,MT,5391
3861231,Cerro Chucula,-26.7659,-67.99817,MT,5872
3861349,Cerro Chivato,-29.52839,-69.80785,MT,5181
3861368,Cerro Chiquero,-32.23695,-69.61654,MT,5129
3861412,Cerro Chimbote,-33.28393,-69.94391,MT,5396
3861657,Cerro Chascon,-26.58393,-67.91887,MT,5305
3861730,Nevado de Chani,-24.06292,-65.74571,MT,5896
3862122,Cerro Central,-32.9717,-69.99402,MT,5031
3862149,Cerro Cenizo,-27.86183,-68.45435,MT,5208
3862362,Cerro Caserones,-28.18895,-69.45867,MT,5206
3862847,Nevado del Candado,-27.3272,-66.19011,MT,5302
3863436,Cerro Calalaste,-25.66417,-67.43475,MT,5294
3863481,Cerro Cajero,-25.62949,-68.00524,MT,5675
3863651,Cerro Caballo,-32.17334,-69.94575,MT,5079
3863973,Cerro Bonete,-32.50084,-70.0543,MT,5027
3863974,Cerro Bonete,-27.85061,-68.8193,MT,6759
3863983,Cerro del Bolson,-27.21417,-66.09417,MT,5552
3864136,Cerro Blanco,-28.3453,-69.565,MT,5372
3864138,Cerro Blanco,-26.53854,-67.84145,MT,5084
3864453,Cerro Bayo Segundo,-22.64028,-66.58988,MT,5018
3864466,Cerro Bayo Grande,-26.72999,-66.65627,MT,5082
3864514,Cerro Bayo,-27.28179,-68.52465,MT,6436
3864528,Cerro Bayo,-22.48333,-66.93333,MT,5221
3864568,Cumbre Baya,-28.88435,-67.82592,MT,5137
3864611,Cerro Barro Negro,-24.32817,-65.67901,MT,5333
3865122,Cerro del Baboso,-28.28661,-69.37461,MT,6070
3865152,Cerro Azufre,-24.398,-66.77849,MT,5528
3865525,Cerro Archibarca,-25.23771,-67.86491,MT,5044
3865596,Cerro Aracar,-24.3,-67.78333,MT,6095
3865887,Cerro Ameghino,-32.62432,-69.97298,MT,5794
3866544,Cerro Aguas Dulces,-26.28887,-68.20217,MT,5611
3866559,Cerro Aguas Blancas,-25.70402,-68.48013,MT,5735
3866560,Alto Aguas Blancas,-26.45154,-67.79494,MT,5025
3866820,Cerro de la Aguada,-25.66812,-67.89284,MT,5583
3866859,Cerro Agua Caliente,-25.61629,-66.97092,MT,5046
3866860,Cerro Agua Caliente,-24.2924,-66.51419,MT,5348
3866949,Cerro Aconcagua,-32.65383,-70.01141,MT,6959
3866993,Nevado de Acay,-24.41284,-66.16061,MT,5950
3867016,Cerro Abra Grande,-25.45993,-68.29725,MT,5490
3869104,Cerro Tridente,-26.28201,-68.55645,MT,5226
3875255,Cerro El Potro,-28.39402,-69.62951,MT,5854
3875511,Cerro de las Polleras,-33.24729,-69.92217,MT,5757
3878098,Cerro de Olivares,-30.3,-69.91667,MT,5207
3892826,Cerro Curutu,-23.1752,-67.06077,MT,5121
8540355,Penon al Norte del Falso Azufre,-26.79454,-68.36483,MT,5826
11109735,Cerro Munizaga,-30.386,-70.05354,MT,5093
11129737,Cerro Baya de Cori,-24.99264,-68.41748,MT,5107
11177216,Cerro Dos Naciones,-24.8174,-68.52993,MT,5339
11177279,Cerro Tecar Norte,-24.49157,-68.3419,MT,5205
11209155,Cerro Los Maranceles,-28.44809,-69.66255,MT,5688
12149363,Pico Salado,-25.4975,-68.5699,MT,5023
12906743,Cerro Oscara,-24.17336,-67.27904,MT,5000
12906744,Cerro Guanaquero,-24.2892,-67.44801,MT,5092
3876046,Cerro Piga,-20.07956,-68.76354,MT,5038
3878384,Cerro Cono,-20.63433,-68.44675,MT,5204
3885792,Cerro La Laguna,-20.77195,-68.54218,MT,5092
3886665,Nevado Kakepe Junthuta,-18.06667,-69.06667,MT,5036
3887298,Cerro Agua de Perdiz,-21.7907,-68.06137,MT,5524
3887308,Cordon de Inacaliri,-21.93936,-68.08301,MT,5355
3892576,Cerro Deslinde,-22.27392,-67.93611,MT,5587
3896820,Cerro Capurata,-18.41512,-69.04615,MT,5990
3898735,Cerro Barrancani,-20.22948,-68.71455,MT,5111
3899247,Cerro Ascotan de Ramaditas,-21.68781,-68.11744,MT,5500
3899872,Cerro Alto Toroni,-19.74833,-68.69685,MT,5788
3900819,Cerro Zapaleri,-22.81583,-67.18,MT,5653
3901039,Cerro Yaretani,-18.14371,-68.35018,MT,5006
3901176,Cerro Yacuma,-15.86667,-68.55,MT,5972
3901338,Cerro Vizcachillas,-22.33333,-67.56667,MT,5074
3901347,Cerro Vitunal,-22.13333,-66.7,MT,5166
3901443,Nevado Vinohuara,-16.03333,-68.36667,MT,5259
3901667,Cerro Vilama,-22.53333,-66.98333,MT,5340
3901820,Cerro Vena Larga,-22.06667,-67.08333,MT,5020
3901922,Cerro Uturunco,-22.27,-67.18,MT,6008
3901997,Cerro Uquilla,-20.85067,-68.19926,MT,5092
3902031,Cerro Umurata,-18.35575,-69.04937,MT,5717
3902103,Nevado Ulla Khaya,-15.00578,-69.05256,MT,5497
3902143,Cerro Ubina,-20.45731,-66.36717,MT,5147
3902212,Cerro Tunupa,-19.83467,-67.64786,MT,5321
3902248,Cerro Tunari,-17.3,-66.36667,MT,5023
3902418,Cerro Tres Cumbres,-22.78845,-67.6313,MT,5337
3902479,Cerro Towa,-20.4713,-68.40146,MT,5054
3902583,Cerro Torque,-22.11667,-67.55,MT,5241
3902605,Cerro Toro,-18.9625,-66.43664,MT,5135
3902686,Cerro Tomasamil,-21.29179,-67.96888,MT,5890
3902909,Cerro Tirani,-20.62758,-68.31365,MT,5119
3902944,Cerro Tinte,-22.66667,-67.03333,MT,5015
3903044,Cerro Tiara,-15.98333,-68.45,MT,5296
3903141,Cerro Tetivilla,-19.71812,-68.18794,MT,5006
3903175,Cerro Tenaza,-20.66785,-68.39538,MT,5161
3903208,Cerro Tazna,-20.62812,-66.20096,MT,5052
3903263,Cerro Tata Sabaya,-19.13552,-68.5237,MT,5430
3903382,Taracarca,-16.08333,-68.35,MT,5385
3903451,Cerro Tapaquilcha,-21.62405,-67.94355,MT,5450
3903605,Cerro Tamachuma,-19.08333,-68.76667,MT,5013
3903870,Cerro Suriphuyo,-22.38589,-67.49047,MT,5458
3903919,Cerro Sunicagua,-17.88333,-69.0,MT,5018
3903925,Nevado Sunchulli,-15.02042,-68.98527,MT,5091
3904053,Nevado Soral,-14.71667,-69.16667,MT,5375
3904076,Cerro Sonequera,-22.00872,-67.21817,MT,5899
3904087,Cerro Sombrerito,-21.782,-67.80353,MT,5341
3904236,Cerro Sinejavi,-17.23333,-69.41667,MT,5068
3904258,Cerro Silole Grande,-21.95,-68.06667,MT,5315
3904276,Cerro Silla Pata,-16.66667,-67.75,MT,5442
3904290,Cerro Sillajguay,-19.75,-68.7,MT,5884
3904381,Cerro Serkhe Kkollu,-16.39149,-67.93877,MT,5546
3904383,Cerro Serke,-17.35,-69.4,MT,5072
3904606,Cerro Sapajo,-19.94727,-68.3114,MT,5166
3904674,Cerro Santiago,-21.73167,-66.45049,MT,5234
3904853,Cerro Santa Isabel,-21.65149,-66.5211,MT,5273
3904931,Cerro Santa Catalina,-18.85,-68.81667,MT,5080
3905836,Cerro San Antonio,-22.17938,-67.16357,MT,5320
3905934,Cerro Sanabria,-22.12337,-67.54072,MT,5644
3906108,Nevado Sajama,-18.105,-68.87944,MT,6542
3906118,Cerro Sairecabur,-22.71667,-67.89167,MT,5971
3906168,Cerro Sacasani,-19.13974,-68.42739,MT,5090
3906524,Cerro Redondo,-20.23083,-68.68774,MT,5054
3906752,Cerro Quimsa Chata,-18.88333,-68.85,MT,5245
3906797,Cerro Quilhuiri,-18.84272,-68.92659,MT,5133
3906832,Cerro Quetena,-22.26028,-67.41559,MT,5693
3906906,Nevado Quelluani,-15.98333,-68.41667,MT,5828
3906942,Cerro Quebrada Honda,-21.97536,-67.69452,MT,5354
3907010,Morro Puripica,-22.73509,-67.61569,MT,5086
3907037,Nevado Pupuya,-15.03333,-69.03333,MT,5617
3907048,Puntiagudo,-16.86667,-67.55,MT,5281
3907049,Cerro Puntas Negras,-22.42151,-67.09597,MT,5377
3907675,Cerro Puquintica,-18.74273,-68.98053,MT,5407
3907707,Nevado Pomerape,-18.12701,-69.12889,MT,6282
3907723,Cerro Polques,-22.51807,-67.73677,MT,5424
3907750,Cerro Poderosa,-21.63333,-66.53333,MT,5165
3907968,Cerro Piedras,-22.58286,-67.05153,MT,5591
3908027,Cerro Picacho Chinchilhuaya,-19.97636,-68.37707,MT,5073
3908058,Cerro Phisa Kkollu,-20.64676,-68.26158,MT,5090
3908308,Patapatani,-16.00879,-68.42036,MT,5452
3908349,Cerro Pastos Grandes,-21.75013,-67.83939,MT,5817
3908417,Cerro Pasa Willkhi,-18.24052,-68.54239,MT,5034
3908425,Nevado Paroma,-20.93549,-68.40804,MT,5720
3908569,Cerro Papellon,-21.42046,-68.05199,MT,5308
3908594,Cerro Panizos,-22.43333,-66.78333,MT,5000
3909080,Cerro Paco Keuta,-16.08333,-68.43333,MT,5589
3909178,Cerro Pabellon,-22.33171,-67.76404,MT,5465
3909365,Cerro Oke Okeni,-18.32373,-69.03551,MT,5532
3909383,Cerro Ojitos,-21.75207,-67.60737,MT,5271
3909447,Cerro Nuevo Mundo,-21.93688,-66.9188,MT,5485
3909487,Pico del Norte,-15.8,-68.55,MT,6070
3909572,Cerro Negro,-22.53333,-67.03333,MT,5441
3909573,Cerro Negro,-22.22213,-67.87236,MT,5682
3909575,Cerro Negro,-21.98333,-66.91667,MT,5021
3909576,Cerro Negro,-21.94864,-68.02203,MT,5191
3909770,Mururata,-16.51646,-67.81577,MT,5871
3909946,Cerro Moroco,-21.86614,-66.60621,MT,5681
3909980,Cerro Morco,-22.33751,-66.95559,MT,5093
3910372,Cerro Milliri,-20.6265,-68.44675,MT,5204
3910425,Cerro Michincha,-20.94166,-68.51092,MT,5305
3910426,Cerro Michina,-22.41667,-67.88333,MT,5537
3910455,Cerro Mesada Negra,-22.45042,-66.88227,MT,5527
3910708,Cerro Marcaracana,-22.07126,-67.10044,MT,5060
3910812,Cerro Mancha,-20.46007,-68.31668,MT,5024
3910841,Cerro Mamailloca,-16.26667,-68.18333,MT,5133
3911194,Cerro Loromayu,-22.48598,-67.10578,MT,5888
3911312,Cerro Llixar,-20.99205,-68.04666,MT,5504
3911378,Cerro Llancor,-21.94994,-67.77337,MT,5503
3911478,Cerro Lipez,-21.88333,-66.86667,MT,5929
3911487,Cerro Linko Linko,-16.66313,-67.73599,MT,5244
3911496,Pico Linco Grande,-16.1,-68.31667,MT,5084
3911865,Cerro Laram Khaua,-17.28333,-69.4,MT,5182
3912131,Cerro Lagunitas,-22.37673,-67.65085,MT,5128
3912469,Cerro Kuli Orkho,-22.08543,-67.07241,MT,5002
3912562,Cerro Kolligi,-20.66195,-67.75634,MT,5040
3912859,Cerro Khala Katin,-21.22445,-67.60926,MT,5284
3912875,Cerro Keucha,-19.56529,-66.30646,MT,5088
3912996,Cerro Kari,-20.41547,-66.37059,MT,5017
3913031,Cerro Kapina,-22.00821,-67.77729,MT,5708
3913118,Cerro Kachi Laguna,-21.73258,-67.90004,MT,5368
3913122,Cerro Juvina,-21.88809,-67.51126,MT,5010
3913207,Cerro Julina,-20.70421,-68.10477,MT,5142
3913275,Cerro de Jorcada,-22.01667,-67.78333,MT,5360
3913406,Cerro Jatun Wila,-19.40129,-66.57643,MT,5214
3913448,Cerro Jatun Khasa,-19.98954,-65.65512,MT,5023
3913635,Cerro Jankho Karka,-16.11093,-68.21712,MT,5038
3913642,Cerro Jankho Huyo,-16.05106,-68.32299,MT,5512
3913808,Cerro Jachcha Condoriri,-17.99767,-69.00324,MT,5326
3913925,Cerro Itapalluni,-17.03333,-67.4,MT,5000
3913961,Nevado Isquillani,-14.98333,-69.11667,MT,5005
3914142,Cerro Inti Pasto,-21.39213,-67.90611,MT,5372
3914152,Cerro Inmaculado,-16.93333,-67.5,MT,5312
3914193,Pico del Indio,-16.66667,-67.8,MT,5366
3914257,Cerro Inacaliri,-21.97893,-68.07228,MT,5626
3914272,Nevado Illimani,-16.63249,-67.79054,MT,6438
3914282,Nevado Illampu,-15.81667,-68.53333,MT,6368
3914291,Cerro Ilampu,-16.18333,-68.08333,MT,5519
3914518,Cerro Huilacollo,-15.0,-69.0,MT,5014
3914605,Nevado Huayna Potosi,-16.26346,-68.15334,MT,6088
3914627,Cerro Huaylloco,-18.12706,-68.38642,MT,5075
3914671,Cerro Huayllacis,-22.7183,-67.37262,MT,5292
3914855,Cerro Huanoj Khasa,-21.72769,-67.62288,MT,5077
3914928,Nevado Huanacuni,-14.85,-69.16667,MT,5796
3914959,Cerro Huallcani,-20.60633,-68.48513,MT,5114
3915225,Nevado Hichucota,-16.23333,-68.18333,MT,5133
3915264,Hancocota,-16.1,-68.31667,MT,5084
3915306,Cerro Hachi,-22.18333,-66.75,MT,5071
3915352,Cerro Guayaques,-22.8855,-67.59474,MT,5076
3915544,Cerro Grande,-19.62939,-68.03386,MT,5028
3915809,Cerro Faldajara,-22.51667,-67.7,MT,5393
3917887,Cerro Eskapa,-21.25763,-67.69337,MT,5090
3917999,Cerro El Volcan,-22.21667,-66.75,MT,5509
3918539,Cerro Cusin Chuto,-18.11417,-68.31818,MT,5020
3918568,Cerro Curumaya,-19.00599,-68.83334,MT,5503
3918696,Cerro Culebra,-19.07041,-68.70198,MT,5188
3918722,Cerro Cueva Punta,-21.90896,-67.72688,MT,5072
3918911,Cerro Coyumiche,-21.28333,-67.96667,MT,5210
3919113,Cerro Cordillerita,-20.70219,-68.43269,MT,5009
3919192,Cerro Copa,-20.65,-68.45,MT,5080
3919204,Pico Contador,-16.13333,-68.28333,MT,5307
3919259,Nevado Condoriri,-18.03333,-69.01667,MT,5182
3919281,Cerro Condor Iquina,-18.34068,-69.00418,MT,5044
3919301,Cerro Condor Chucuna,-19.89945,-66.52615,MT,5252
3919753,Cerro Colorado,-22.31969,-66.91461,MT,5366
3919754,Cerro Colorado,-22.1365,-66.69416,MT,5444
3919756,Cerro Colorado,-21.80459,-66.47865,MT,5113
3919816,Nevado Cololo,-14.88333,-69.1,MT,5465
3920029,Cerro Cirque,-17.34277,-69.36235,MT,5072
3920082,Cerro Chutinza,-20.90048,-68.54402,MT,5184
3920113,Cerro Churumani,-16.35,-68.13333,MT,5182
3920166,Cerro Churco,-19.46898,-66.45173,MT,5005
3920261,Cerro Chulluncani,-21.56377,-67.85567,MT,5476
3920324,Cerro Chuhuilla,-21.50151,-67.79051,MT,5426
3920402,Cerro Chorolque,-20.91794,-66.03619,MT,5615
3920464,Cerro Cholcani,-18.31069,-68.83973,MT,5032
3920694,Cerro Chingurani,-18.13829,-68.47085,MT,5034
3920897,Cerro Chiguana,-21.10465,-67.86441,MT,5262
3920942,Cerro Chicaliri,-22.79025,-67.25907,MT,5136
3920982,Chearoco,-15.9303,-68.44229,MT,6127
3921006,Cerro Chela,-20.66866,-68.50251,MT,5123
3921044,Nevado Salluyo,-14.63333,-69.23333,MT,5650
3921088,Cerro Chascos,-21.18889,-67.79991,MT,5139
3921089,Cerro Chascon,-21.87629,-67.90657,MT,5190
3921447,Cerro Chajnantor,-22.72727,-67.33197,MT,5389
3921531,Nevado Chachacomani,-15.98548,-68.38056,MT,6074
3921563,Nevado Chacaltaya,-16.35333,-68.13139,MT,5421
3921588,Cerro Cevinal,-22.16667,-66.68333,MT,5245
3921775,Cerro Catal,-21.60423,-67.68998,MT,5013
3921786,Cerro Castor,-22.30377,-67.03329,MT,5147
3921825,Nevado de Casiri,-15.9,-68.5,MT,5828
3922110,Cerro Caquella,-21.492,-67.9327,MT,5944
3922159,Cerro Capaja,-18.17449,-68.35302,MT,5039
3922296,Cerro Canasita,-17.8,-69.15,MT,5027
3922306,Cerro Canapa,-21.44857,-68.07158,MT,5882
3922472,Cerro Calzada,-15.93333,-68.46667,MT,5874
3922507,Cerro Caltama,-20.63497,-68.10898,MT,5371
3922699,Cerro Cajlina,-22.59179,-67.14061,MT,5229
3922828,Cerro Cachi Laguna,-21.68875,-67.89076,MT,5585
3922887,Cerro Cabaraya,-19.14572,-68.69778,MT,5869
3923006,Cerro Bravo,-22.47047,-67.1579,MT,5707
3923013,Cerro Brajma,-22.71667,-67.13333,MT,5300
3923039,Cerro Boratera de Challviri,-22.58895,-67.61957,MT,5454
3923046,Cerro Bonete,-21.75221,-66.48034,MT,5655
3923076,Cerro Bofedal,-20.69808,-68.5275,MT,5030
3923268,Cerro Bayo,-21.86586,-67.94672,MT,5034
3923402,Cerro Bala,-20.64669,-68.28934,MT,5037
3923446,Cerro Azulejos,-21.68177,-66.30752,MT,5225
3923619,Cerro Asu Asuni,-18.22082,-68.52281,MT,5077
3923734,Cerro Arenal,-21.79636,-67.85914,MT,5536
3923762,Cerro Araral,-21.6,-68.18333,MT,5688
3923785,Nevado Araca,-16.9,-67.41667,MT,5156
3923831,Cerro de la Apacheta,-16.06667,-68.35,MT,5369
3924007,Nevado Ancohuma,-15.85452,-68.54181,MT,6427
3924056,Cerro Anallajchi,-17.93333,-68.93333,MT,5750
3924102,Cerro Amarillo,-22.59432,-67.76952,MT,5661
3924103,Cerro Amarillo,-21.8847,-66.82215,MT,5124
3924129,Cerro Toroni,-19.71667,-68.68333,MT,5829
3924134,Cerro Alto Mira,-20.10987,-68.5177,MT,5045
3924380,Cerro Aguas Calientes,-22.71339,-67.69284,MT,5428
3924381,Cerro Aguas Calientes,-21.62795,-67.88407,MT,5179
3924448,Cerro Aguaditas,-22.26836,-67.55205,MT,5324
3924543,Cerro Acotango,-18.38222,-69.04778,MT,6052
3968882,Cerro Sojta Kkota,-18.82111,-68.80583,MT,5104
3968884,Cerro Paco Khaua,-18.81444,-68.80056,MT,5009
3968982,Cerro Turi Turini,-18.23323,-68.5192,MT,5022
3968984,Cerro Laram Khaua,-18.21788,-68.53359,MT,5106
11146047,Cerro Tres Puntas,-21.76144,-68.07099,MT,5270
11769674,Nevado Jankho Uma,-15.80454,-68.52784,MT,5406
11792340,Cerro Locopauchenta,-14.58092,-69.22163,MT,5228
11792500,Cerro Torremani,-14.62139,-69.20307,MT,5047
11792505,Cerro Pan de Azucar,-14.77033,-69.20621,MT,5312
11792506,Cerro Altarani,-14.81404,-69.20716,MT,5169
11792507,Cerro Tojopata,-14.81623,-69.21592,MT,5051
11792509,Cerro Jenkellusa,-14.83299,-69.26135,MT,5010
11792514,Cerro Huatra Cruz,-14.93746,-69.15936,MT,5213
11792518,Cerro Huaracha,-14.99231,-69.10946,MT,5153
11792522,Cerro Chualluma,-14.8807,-69.1366,MT,5358
11792523,Loma Peskapata,-14.87918,-69.18383,MT,5215
11792524,Cerro Khachuea Huaracha,-14.90432,-69.16564,MT,5164
11792594,Cerro Yana Chaqui,-14.98054,-69.05281,MT,5580
11792698,Cerro Japu Pata Caballuni,-15.02769,-69.08481,MT,5059
11792716,Cerro Morado,-15.00829,-69.12465,MT,5157
12129143,Wari Umana,-16.01187,-68.39103,MT,5264
1252607,Cho-mo-la-li Shan,27.82405,89.26919,MT,7314
7302310,Tongshanjiabu,28.18658,89.95756,MT,7207
7302311,Kangphu Kang I,28.15667,90.07083,MT,7220
7302312,Chomolhari Kang,28.16468,90.1825,MT,7121
7302313,Liangkang Kangri,28.06418,90.44353,MT,7534
7302373,Gangkhar Puensum,28.04914,90.45477,MT,7570
12534522,Jichu Drake,27.85282,89.32839,MT,6662
12902508,Chura Kang,28.05091,90.75167,MT,6650
12902509,Kangphu Kang II,28.14162,90.10095,MT,6945
12902510,Jejekangphu Kang,28.14535,90.02335,MT,6965
12902511,Tsenda Kang,28.1067,89.86332,MT,6481
12902512,Masang Kang,28.16826,89.76519,MT,7194
6081596,Mount Logan,60.56707,-140.40523,MT,5959
6081633,Mount Lucania,61.02194,-140.46277,MT,5226
6082817,Mount Steele,61.09278,-140.3,MT,5073
207258,Mont Stanley,0.38789,29.8711,MT,5109
3833805,Cerro Gemelos,-32.88247,-70.00454,MT,5240
3834576,Cerro Tecar,-24.53539,-68.40951,MT,5410
3835222,Cerro Sin Nombre,-27.05,-68.45,MT,5373
3838913,Alto del Rio Blanco,-32.95171,-70.00789,MT,5057
3860516,Cerro Colorados,-26.18225,-68.37513,MT,6080
3867758,Cerro Yalquis,-23.13516,-67.70721,MT,5142
3867875,Pico Wheelwright,-26.80287,-68.73581,MT,5758
3867976,Cerro Volcan,-22.33333,-67.96667,MT,5162
3868279,Cerro Vidal Gormaz,-27.75,-69.1,MT,5019
3868901,Cerro Tupungato,-33.35871,-69.77022,MT,6570
3868933,Cerro Tumisa,-23.45735,-67.81365,MT,5658
3869039,Cerro Los Tronquitos,-28.52239,-69.72923,MT,5636
3869183,Cerro Tres Monos,-21.12957,-68.43528,MT,5359
3869219,Cerro Tres Cruces,-27.14185,-68.89594,MT,6629
3869721,Cerro Toconce,-22.19377,-68.07298,MT,5335
3869731,Cerro Toco,-22.94631,-67.77689,MT,5604
3870090,Cerro de Tatio,-22.4078,-67.97223,MT,5157
3870094,Cerro Tatajachura,-19.49645,-69.10246,MT,5240
3870149,Cerro de Tapado,-30.17861,-69.9565,MT,5321
3870253,Cerro Tallacollo,-18.64357,-69.31048,MT,5063
3870406,Cerro Taapaca,-18.1,-69.5,MT,5860
3870442,Cerro Sur Caserones,-28.19709,-69.49715,MT,5342
3870689,Cerro Solo,-27.10039,-68.73253,MT,6190
3872213,Cerro de San Francisco,-26.91667,-68.25,MT,6016
3872583,Cerro del Salar Grande,-26.04794,-68.75495,MT,5210
3873596,Cerro Redondo,-23.01667,-67.7,MT,5225
3873651,Cerro Rayado,-23.17628,-67.68908,MT,5494
3873970,Cerro Quinuta,-17.63739,-69.79843,MT,5434
3874067,Cerro Quimsachata,-19.73333,-68.85,MT,5040
3874448,Cerro Queitane,-19.48118,-68.95464,MT,5183
3874471,Cerro Quebrado,-25.27483,-68.7571,MT,5178
3874484,Cerro Quebrada Seca,-27.83815,-69.17933,MT,5059
3874558,Cerro Putas,-23.10819,-67.71286,MT,5407
3874599,Cerro Purico,-22.98664,-67.74166,MT,5703
3874634,Cerro Puquios,-21.31739,-68.49752,MT,5118
3874701,Cerro Puntiagudo de la Isla,-25.88134,-68.64953,MT,5165
3874838,Cerro Pumiri,-19.06998,-69.02747,MT,5449
3874840,Cerro Pumire,-19.06667,-69.03333,MT,5097
3874890,Cerro Pulido,-28.0902,-69.48862,MT,5158
3874898,Cerro Negro de Pujsa,-23.23612,-67.58043,MT,5100
3875186,Cerro Prieto,-18.95664,-69.04,MT,5049
3875334,Cerro de Potor,-23.20199,-67.6756,MT,5307
3875541,Cerro Polapi,-21.64844,-68.393,MT,5960
3875544,Cerro Polan,-21.21872,-68.58465,MT,5420
3875546,Cerro Polami,-21.63333,-68.38333,MT,5216
3875617,Cerro Plomo,-33.23278,-70.21222,MT,5424
3875624,Cerro Plomizo,-26.4193,-68.6379,MT,5371
3875723,Nevado de los Piuquenes,-33.51595,-69.83402,MT,6019
3875840,Cerro Hoff,-33.53809,-69.90404,MT,5101
3876005,Cerro Pili,-23.28333,-67.63333,MT,5326
3876103,Cerro de Piedra Parada,-26.39987,-68.75751,MT,5267
3876327,Cerro Picavilque,-19.73666,-68.74168,MT,5511
3876516,Cerro Pereira,-21.03492,-68.70406,MT,5056
3876722,Cerro de la Pena,-25.07124,-68.71561,MT,5235
3876944,Cerro Paza,-19.97975,-68.69702,MT,5097
3877003,Cerro Patilla Pata,-18.05,-69.03333,MT,5300
3877014,Cerro Patarane,-18.63072,-69.33636,MT,5079
3877071,Cerro Pastillitos,-27.14734,-69.19095,MT,5073
3877185,Cerro Paredones,-27.50288,-69.32663,MT,5008
3877212,Cerro de Parajalla,-19.08214,-69.0093,MT,5361
3877284,Cerro Panteon de Aliste,-26.28512,-68.83595,MT,5346
3877333,Cerro Paniri,-22.06019,-68.22802,MT,5960
3877514,Cerro Palpana,-21.54469,-68.5235,MT,6040
3877515,Cerro Palpana,-21.14798,-68.43847,MT,5133
3877654,Pico de las Palas,-28.98567,-69.95138,MT,5186
3877668,Cerro Pajonales,-24.23791,-68.11743,MT,5935
3877874,Cerro Pabellon,-21.62951,-68.48545,MT,5047
3877903,Cerro Overo,-23.76728,-67.40622,MT,5376
3878044,Cerro Orcotunco,-18.68025,-69.27194,MT,5069
3878122,Cerro Ojos del Salado,-27.10979,-68.54044,MT,6893
3878705,Cerro Nevados de Juncalito,-26.83297,-68.88405,MT,5092
3878872,Cerro Negro,-23.01272,-67.41756,MT,5157
3878878,Cerro Negro,-21.65076,-68.45051,MT,5257
3879167,Cerro Muntirune,-18.05516,-69.43287,MT,5058
3879194,Cerro Mulluri,-18.95655,-69.13471,MT,5081
3879205,Cerro Mulas Muertas,-26.94735,-68.51058,MT,5864
3879689,Cerro Miscanti,-23.67393,-67.71654,MT,5622
3879765,Cerro Miniques,-23.80389,-67.75654,MT,5910
3879978,Cerro Meson Alto,-33.68164,-70.03525,MT,5089
3880209,Cerro del Medio,-26.00334,-68.57264,MT,5442
3880737,Cerro Manchado,-25.72952,-68.76867,MT,5052
3881065,Cerro Macurquima,-19.33132,-69.02304,MT,5105
3881880,Cerro Losloyo,-23.13943,-67.35082,MT,5367
3882021,Cerro Los Helados,-28.3177,-69.5697,MT,5324
3882978,Cerro Llancoma,-18.13088,-69.47996,MT,5125
3883097,Cerro Lirima,-19.75946,-68.86166,MT,5552
3883328,Nevado Leon Muerto,-26.10001,-68.53172,MT,5761
3883355,Cerro del Leoncito,-26.67179,-68.86589,MT,5137
3883363,Cerro Leon Blanco,-32.96136,-70.02085,MT,5098
3883378,Cerro del Leon,-22.18333,-68.11667,MT,5760
3883409,Cerro Lena,-23.55,-67.76667,MT,5604
3883424,Cerro Lejia,-23.5551,-67.76415,MT,5777
3883735,Cerro Latarani,-19.03371,-69.04693,MT,5359
3883736,Cerro Latarana,-19.3303,-68.98232,MT,5181
3884411,Cerro de las Cuevas,-21.58383,-68.47917,MT,5365
3884825,Cerro Larancagua,-18.11976,-69.37005,MT,5439
3884826,Nevado Larancagua,-18.01667,-69.08333,MT,5433
3885557,Cerro Lajitas,-27.33137,-68.94763,MT,5051
3885739,Cerro Laguna Verde,-26.80244,-68.50665,MT,5865
3885740,Cerro Laguna Verde,-23.25423,-67.7121,MT,5464
3885752,Cerro Lagunas Bravas,-26.29002,-68.6422,MT,5262
3885767,Cerro Laguna Grande,-28.73393,-69.81724,MT,5195
3886239,Cerro Laco,-23.8,-67.5,MT,5109
3886711,Cerro del Juncalito,-26.53868,-68.76171,MT,5675
3886726,Cerro Juncal,-33.05198,-70.09458,MT,6110
3886824,Nevado Jotabeche,-27.69802,-69.21805,MT,5862
3886939,Cerro Jaroma,-17.84736,-69.50496,MT,5121
3887082,Cerro Cono de la Isla,-25.73821,-68.69065,MT,5135
3887083,Cerro de la Isla,-25.76072,-68.67926,MT,5123
3887131,Cerro Iquilla,-17.84782,-69.48635,MT,5339
3887277,Cerro Incahuasi,-23.01206,-67.57392,MT,5240
3887297,Cerros del Inca,-21.78489,-68.06035,MT,5571
3887502,Cerro Huinchuta,-19.08814,-69.02675,MT,5338
3887557,Cerro Huilacuraguara,-18.07176,-69.41786,MT,5239
3887971,Cordon Honar,-23.06667,-67.75,MT,5250
3887973,Cerro Honar,-23.08333,-67.76667,MT,5023
3888140,Cerro Hecar,-23.23761,-67.75057,MT,5020
3888440,Cerro Guaneguane,-18.15341,-69.26942,MT,5005
3888456,Cerro Guanaquero,-24.50792,-68.50042,MT,5131
3888603,Cerro Guaijata,-19.02385,-69.04201,MT,5418
3888607,Cerro Guaiguasi,-19.0286,-69.05819,MT,5386
3888881,Cerro Gordo,-21.25798,-68.57406,MT,5176
3889034,Cerro Gemelos,-26.02227,-68.4778,MT,5223
3889172,Cerro de la Gallina,-27.74374,-69.18849,MT,5235
3889986,Cerro Escabroso,-29.78524,-70.10177,MT,5369
3890005,Cerro Ermitano,-26.78355,-68.60126,MT,6118
3891350,Cerro El Fraile,-27.05,-68.38333,MT,6061
3891643,Cerro El Chascon,-23.01088,-67.68725,MT,5578
3892297,Cerro Dona Ines,-26.07784,-69.18499,MT,5070
3892304,Cerro Dona Ana,-29.76277,-70.10699,MT,5690
3892841,Cerro Curiquinca,-22.66667,-67.9,MT,5045
3892913,Cerro Curaguara,-18.04693,-69.44424,MT,5054
3893007,Cerro Cumbre Negra,-21.21313,-68.50716,MT,5617
3893393,Cerro Cosca,-21.12458,-68.43295,MT,5197
3893396,Cerro Cosapilla,-17.85141,-69.4014,MT,5200
3893417,Cerro Cortaderas,-33.684,-70.00038,MT,5279
3893478,Cerro Corralito,-21.1708,-68.44257,MT,5152
3893542,Cerro Corona,-23.43303,-67.74409,MT,5273
3893661,Cerro Copatanca,-17.88346,-69.43623,MT,5292
3894021,Cerro Colorado Chato,-26.16522,-68.61104,MT,5176
3894082,Cerro Colorado,-26.91338,-68.9269,MT,5176
3894086,Cerro Colorado,-22.59135,-67.92134,MT,5748
3894089,Cerro Colorado,-21.86476,-68.26393,MT,5063
3894327,Cerro Colachi,-23.24028,-67.64631,MT,5631
3894652,Cerro Cienaga Redonda,-27.26405,-68.92109,MT,5114
3894681,Cerro Churicagua,-17.86851,-69.50501,MT,5033
3894693,Cerro Chuquiananta,-18.9166,-69.1517,MT,5539
3894699,Nevado Chupiquina,-17.67466,-69.80584,MT,5805
3894777,Cerro Chucullani,-19.31177,-68.95627,MT,5225
3894778,Cerro Chuculay,-24.6,-68.53333,MT,5199
3894860,Cerro Choquelimpie,-18.28033,-69.21078,MT,5212
3895094,Cerro Chiliques,-23.58333,-67.7,MT,5778
3895142,Cerro Chiguanani,-19.35242,-68.96748,MT,5028
3895143,Cerro Chihuana,-18.93689,-69.02139,MT,5288
3895364,Cerro Chiarsaya,-17.77225,-69.4921,MT,5392
3895424,Cerro Chapiquina,-18.39031,-69.47705,MT,5029
3895449,Cerro Chantacollo,-18.26563,-69.47803,MT,5122
3895651,Cerro Chaihuiri,-21.27879,-68.51464,MT,5057
3895818,Cerro Ceucis,-21.02374,-68.69455,MT,5024
3896041,Cerro Cebollar,-21.60845,-68.44701,MT,5716
3896179,Cerro Catanave,-18.5405,-69.34015,MT,5022
3896293,Cerro de Caserones,-28.15924,-69.49916,MT,5519
3896652,Cerro Cariquima,-19.5436,-68.66947,MT,5365
3896762,Cerro Carasilla,-21.69352,-68.3111,MT,5029
3896821,Cerro Capur,-24.01524,-67.85515,MT,5186
3897196,Cerro Calzon Chaita,-17.66159,-69.73089,MT,5117
3897429,Cerro Caico,-19.1021,-69.02717,MT,5018
3897461,Cerro Cadillal,-27.81579,-69.37977,MT,5288
3898136,Cerro Bola,-23.24027,-67.45533,MT,5209
3898561,Cerro Bayo,-27.61675,-69.11149,MT,5183
3899055,Cerro del Azufre,-25.37354,-68.88253,MT,5480
3899056,Cerro del Azufre,-21.78722,-68.2375,MT,5846
3899057,Cerro Azufre,-27.30646,-69.13088,MT,6052
3899159,Cerro Aucanquilcha,-21.22,-68.46833,MT,6176
3899180,Cerros Atana,-23.19558,-67.69251,MT,5185
3899326,Cerro Aroma,-19.73579,-68.84068,MT,5488
3899352,Cerro Arintica,-18.74592,-69.04746,MT,5597
3899380,Cerro Arenoso,-23.39666,-67.49241,MT,5064
3899505,Cerro Apacheta Choquelimpie,-18.29542,-69.26665,MT,5042
3899706,Cerros de Ancoma,-18.09065,-69.43627,MT,5381
3899746,Cerro Anarabe,-18.57233,-69.39753,MT,5085
3899970,Cerro Altar,-33.18601,-70.24331,MT,5117
3900083,Cerro Alitar,-23.14369,-67.63647,MT,5321
3900372,Cerro Aguilucho,-21.82887,-68.20211,MT,5561
3900424,Cerro Aguas Calientes,-24.89542,-68.67375,MT,5070
3900425,Cerro Aguas Calientes,-23.36667,-67.68333,MT,5775
3900426,Cerro Aguas Calientes,-23.11285,-67.35192,MT,5159
3900441,Cerro Aguas Blancas,-27.78609,-69.34075,MT,5435
3900718,Cerro Acamarachi,-23.29256,-67.61789,MT,6046
3914073,Cerro Irruputuncu,-19.9,-68.55,MT,5163
3949116,Cerro Quenuta,-17.62167,-69.75056,MT,5248
3949122,Cerro Ancochaullane,-17.5775,-69.78583,MT,5373
8365437,Cerro Casliri,-24.04062,-67.48558,MT,5090
8365525,Cerro Azufrera de Los Cuyanos,-26.44932,-68.73911,MT,5889
8365537,Cerro Negro Chato,-26.50679,-68.71746,MT,5193
8365538,Cerro El Pintado,-26.56134,-68.63707,MT,5636
8365540,Cerro Negro Grande,-26.60766,-68.71007,MT,5464
8365541,Cerro del Gallo,-26.63165,-68.65462,MT,5569
8365543,Cerro de Eulogio,-26.67325,-68.66038,MT,5137
8365550,Cerro del Toro,-26.60616,-68.63232,MT,5911
8365553,Laguna Escondida,-26.69734,-68.50386,MT,5199
8365554,Cerro Cafe,-26.71354,-68.47983,MT,5061
8540241,Cerro Pico El Laco,-23.81829,-67.49921,MT,5325
11109169,Cerro Condoriri,-18.02544,-69.12704,MT,5133
11109693,Cerro Chalipin,-30.46572,-70.29351,MT,5108
11110961,Cerro Loma Colorada,-26.22154,-68.62013,MT,5225
11110962,Cerro Morado,-26.23403,-68.66742,MT,5156
11111573,Cerro Agua de la Falda,-26.59241,-68.85988,MT,5067
11111611,Cerro Largo,-26.75423,-68.53056,MT,5291
11112116,Cerro del Agua,-26.66259,-68.8691,MT,5163
11129747,Cerro La Amarga,-25.62414,-68.79755,MT,5015
11145792,Cerro Chela,-21.40421,-68.50458,MT,5644
11176196,Cerro El Cerrillo Chajnantor,-22.98371,-67.74186,MT,5552
11176551,Cerro La Torta,-22.43326,-67.95967,MT,5049
11176868,Cerro Aguas Delgadas,-24.14334,-67.85729,MT,5216
11176869,Cerro Leoncito,-24.1624,-67.81733,MT,5554
11176870,Cerro Agua Delgada,-24.19878,-67.83641,MT,5314
11176871,Cerro Tanque,-24.17027,-67.94344,MT,5197
11176876,Cerro Talar,-24.04269,-67.83564,MT,5147
11177226,Cerro Zorritas,-24.59622,-68.52911,MT,5138
11369229,Nevado Olivares,-33.10204,-70.17826,MT,6216
12440913,Cerro Ojos de Agua,-27.7455,-69.32182,MT,5233
12468680,Cerro Purifican,-23.27918,-67.47975,MT,5200
1114970,Teram Kangri Peak,35.5802,77.07971,MT,7462
1252539,Kula Kangri,28.22667,90.61614,MT,7554
1279688,Xixabangma Feng,28.35398,85.77807,MT,8027
1279722,Xiari'aba Shan,32.1,94.63333,MT,5191
1279765,Xamardeqen,32.7,93.2,MT,5368
1279818,Wuzitage,36.36667,83.05,MT,5974
1279854,Toze Kangri,34.77579,82.36291,MT,6370
1279911,Tarlha Ri,28.40801,91.11614,MT,6351
1279926,Tanggula Shan,33.2,91.2,MT,5741
1279941,Tagchagpu Ri,33.49096,82.21424,MT,5988
1279958,Sula,30.66667,83.3,MT,5476
1280191,Qungmogangze,29.91388,90.03571,MT,5704
1280210,Cho Oyu,28.09405,86.6608,MT,8188
1280212,Qong Muztag,35.65207,82.31489,MT,6851
1280218,Qoigang,32.5,85.2,MT,5429
1280271,Qangringngoinza Ri,34.1,88.6,MT,5021
1280303,Purog Kangri,33.9069,89.14032,MT,5867
1280410,Nyainqentanglha Feng,30.3827,90.5733,MT,7162
1280498,Namjagbarwa Feng,29.63144,95.05483,MT,7782
1280524,Muztag Feng,36.4166,87.4133,MT,6973
1280597,Mayi Gangri,33.46667,86.68333,MT,5787
1280636,Makaru Shan,27.9,87.1,MT,7348
1280820,Kongur Shan,38.59333,75.31257,MT,7649
1280882,Kangrinboqe Feng,31.06664,81.31249,MT,6714
1280938,Jiregepa,32.85,92.2,MT,5232
1281173,Gomo Ri,33.5,85.53333,MT,5488
1281204,Geladaindong,33.5,91.06667,MT,6621
1281227,Garkyagdeugang,33.46667,90.76667,MT,5332
1281340,Dobzebo,29.96667,86.38333,MT,5655
1281519,Que'er Shan,32.03739,98.80509,MT,5816
1281604,Broad Group,35.83333,76.61667,MT,5078
1281777,Aktag,36.75,84.66667,MT,5647
1464538,Tekilik Shan,36.51917,80.33417,MT,5208
1794265,Siguniang Shan,31.10676,102.90379,MT,5700
1810138,Gongga Shan,29.59604,101.87905,MT,7556
6613220,Gumalungba Kangri,29.7757,90.20342,MT,5339
6614199,Mulamuze,30.31436,92.26318,MT,5246
6614201,Lamo Lhari,29.69543,91.57903,MT,5182
6614206,Kangri Pe'gye,29.45096,90.4646,MT,5502
6615151,Guzhamlhabai Ri,29.03088,91.41106,MT,5065
6615157,Chaglho'gyixung,29.13964,92.34695,MT,5212
6615164,Ralung,29.20507,92.62796,MT,5104
6615180,Legriserbo,28.73982,92.61354,MT,5145
6615182,Dag Ri,28.63907,92.26567,MT,5155
6615188,Qomo,28.09046,91.85102,MT,5301
6615193,Xoijainqen Ri,28.5604,91.17228,MT,5616
6615194,Zhoggyixarmo,28.62747,91.28763,MT,5764
6615198,Moinda Kangri,28.44319,90.6094,MT,5922
6615200,Yangwang,28.67869,90.93418,MT,5324
6615202,Gyaitongsogsum,28.84272,90.22556,MT,6182
6615203,Qangsanglhomo,28.82588,90.28479,MT,6063
6615204,Noijin Kangsang,28.9477,90.1781,MT,7206
6976239,Xian'erre,28.89806,101.90002,MT,5147
6980470,Ranpijiari,31.14081,99.26858,MT,5006
6980551,Jia'er,30.58726,99.12294,MT,5112
6981043,Gewusha'erjima,33.62921,98.56711,MT,5000
6981053,Zhaqingyaniang,33.30135,98.69315,MT,5148
6985016,Zanchari,31.73469,99.18409,MT,5634
6985101,Xieda,31.64319,99.62659,MT,5333
6998907,Molanchejie,31.40924,100.04844,MT,5100
6998908,Se'aqu,30.94059,99.92067,MT,5025
7302329,Chomo Lonzo,27.93068,87.10776,MT,7818
7302331,Gyachung Kang,28.09814,86.7444,MT,7952
7302340,Labuche Kang,28.30404,86.35074,MT,7367
7302341,Labuche Kang II,28.30147,86.38404,MT,7250
7302342,Porong Ri,28.38947,85.71992,MT,7292
7302343,Gang Benchhen,28.55184,85.54504,MT,7299
7302356,Phola Gangchhen,28.35519,85.80927,MT,7703
7302357,Gurla Mandhata,30.43831,81.29595,MT,7694
7302378,Skyang Kangri,35.92631,76.5675,MT,7545
7839216,Palung Ri,28.12903,86.64479,MT,7012
7839218,Pungpa Ri,28.33309,85.79434,MT,7445
7894302,Pirang,33.1,87.2,MT,5278
7894351,Poza,33.3,84.6,MT,5074
7895648,Abgyag,32.4,90.6,MT,5060
7896027,Amachibma,28.0,87.6,MT,5141
7896040,Abraqangma,32.7,90.1,MT,5182
7896042,Wa Ri,33.0,88.0,MT,5073
7896049,Awei Gangri,33.1,90.5,MT,5211
7896080,Andig,32.6,90.2,MT,5108
7897968,Pagradar,32.8,88.9,MT,5227
7898307,Bungyai,32.9,89.4,MT,5073
7898334,Bongsib,32.4,91.3,MT,5139
7910132,Muztagh Ata,38.27582,75.11619,MT,7546
7910133,Kongur Tiube,38.616,75.19498,MT,7530
7927591,Temar,32.9,91.4,MT,5066
7927674,Dongzom,32.8,90.9,MT,5144
7927704,Dudachaqie,32.802,90.102,MT,5009
7929767,Dacaima Ri,28.8,88.1,MT,5487
7929846,Dariyou,33.3,85.2,MT,5938
7930064,Duozhuojiajia,32.701,91.301,MT,5023
7930134,Pu Lhari,28.9,87.2,MT,5302
7930220,Gari Maikong,32.6,88.3,MT,5370
7930230,Gaxiejiang,32.9,90.9,MT,5021
7930311,Kanggyamo,27.9,88.8,MT,5556
7931293,Goipug,32.7,90.9,MT,5341
8026506,Gyabgochaggar,34.26248,79.61021,MT,6246
8026510,Gyabjumugzug,30.1,84.7,MT,5533
8026639,Jangngailagkor Ri,33.2,87.5,MT,5095
8041609,Gyotangmaryo,32.9,90.0,MT,5090
8041757,Gyangzhong,32.901,88.001,MT,5060
8042340,Kangqingyula,27.902,87.702,MT,5240
8042444,Korlo,32.6,89.9,MT,5172
8045687,Maiduo,32.803,90.103,MT,5017
8045734,Meiqieganggen,33.7,89.0,MT,5515
8045756,Menze,32.9,83.9,MT,5164
8046379,Nagcha,31.4,80.2,MT,5045
8046482,Nanzom,32.6,90.0,MT,5267
8048236,Pomjingsungma,32.601,90.501,MT,5201
8049357,Qujie Ri,33.2,87.3,MT,5071
8049487,Rabalu,30.9,85.0,MT,5004
8049499,Ragainpagxur,32.8,89.2,MT,5191
8049546,Racha,32.401,88.401,MT,5350
8049698,Richa,31.0,84.4,MT,5237
8049716,Rilhaimarbo,32.801,88.901,MT,5234
8049849,Sa Ri,32.501,89.001,MT,5168
8049875,Sergyog,32.8,83.6,MT,5168
8049939,Sangqung,33.3,87.9,MT,5109
8049945,Sangrimarbo,32.9,91.7,MT,5416
8056039,Sere,33.201,87.501,MT,5108
8056073,Salungkamba,32.8,91.7,MT,5212
8056166,Surgang,32.502,88.002,MT,5131
8056210,So Ri,32.8,91.0,MT,5082
8059023,Xiruo,32.9,90.8,MT,5144
8059026,Xixialongqian,31.6,83.8,MT,5757
8059027,Xiyer,33.102,90.502,MT,5178
8059034,Xiza Ri,33.6,88.3,MT,5234
8059082,Xagdar,32.4,88.2,MT,5220
8059094,Xagangjam,31.6,85.1,MT,5519
8059172,Xo Ri,33.0,87.6,MT,5110
8067138,Zhong Ri,31.3,82.4,MT,5158
8067174,Zhubba,32.9,91.1,MT,5111
8078091,Tanglog,33.6,83.8,MT,5226
8078153,Tungjangdung,32.7,88.0,MT,5041
8078166,Tonggyiwaxama,32.701,90.101,MT,5222
8078187,Turi Saimomabu,32.8,90.2,MT,5018
8078303,Ngoru Ri,33.7,87.6,MT,5198
8078674,Yagbo Kangri,29.8,86.0,MT,5585
8078682,Yajia,33.0,90.1,MT,5259
8078699,Yaglung,31.5,83.5,MT,5960
8078717,Yagyichikor,31.5,85.3,MT,5586
8078727,Yamngangba,32.8,89.1,MT,5110
8078737,Yagquyatoi,32.902,89.202,MT,5075
8078833,Yirub,32.9,91.2,MT,5015
8078883,Zaadig,32.79002,90.45663,MT,5007
8078908,Zamei,33.2,86.3,MT,5110
8078913,Zapungdaga,32.301,91.401,MT,5017
8342133,Gora Kuyukapbashi,42.00339,79.84835,MT,5192
8394256,Salosungo,28.33566,85.12173,MT,7043
8394258,Yangra,28.39148,85.12709,MT,7422
8394260,Ganesh V,28.33166,85.1643,MT,6770
8436333,Pumori,28.01566,86.82804,MT,7161
8436335,Xi Lingchain,28.03494,86.80826,MT,6396
8436336,Lingtren,28.02748,86.85525,MT,6714
8436337,Guangming,28.04615,86.86512,MT,6593
8436338,Changzheng,28.06903,86.89954,MT,6716
8436339,Kardapu,28.06369,86.97726,MT,7283
8436340,Karze,28.03229,87.00429,MT,6550
8436341,Pic 38,27.95578,86.96451,MT,7591
8436344,Lixin,28.11113,86.91821,MT,7113
8436345,Dongfang,28.11412,86.94228,MT,7003
8436346,Kardachangri,28.11427,86.99348,MT,7093
8436347,Ridonglabo,28.08243,87.04129,MT,6171
8436348,Tongqiang,28.08039,86.82581,MT,6956
8436349,Shuguang,28.10988,86.8265,MT,6622
8564134,Heishantou Shan,34.68984,83.07325,MT,5490
8564135,Pianshi Shan,35.12828,81.6942,MT,5535
8564136,Dushanliang,34.22443,81.92516,MT,5777
8564137,Liandao Shan,35.22382,86.47353,MT,5496
8564139,Wuji Shan,34.77902,86.32939,MT,5160
8564140,Hualiang Shan,34.47029,86.74783,MT,5185
8564141,Saozhou Shan,33.98037,86.85082,MT,5031
8577688,Tuanjie Feng,38.50463,97.72164,MT,5532
8613756,Zhunzai Shan,30.78713,81.83335,MT,5611
8613757,Lari Shan,31.0461,79.65024,MT,6189
8613808,Quegana Shan,31.37288,80.20253,MT,5449
8995399,Labuzha Shan,33.7536,81.46855,MT,5852
8995400,Payi Shan,33.4502,81.67803,MT,5792
8997789,Ware'erding Shan,32.58432,79.47665,MT,5710
9006611,Yala Shan,31.48822,78.83939,MT,5092
9012013,Geji Shan,30.50188,80.93218,MT,5127
9017555,Lamalangyi,30.43769,81.29504,MT,7657
9073581,Kuduo Wenbu,34.37064,80.40276,MT,5277
9073680,Taidong Jiejiu,34.11142,79.87753,MT,6464
9073709,Songzhi Ling,35.6989,85.62796,MT,6016
9073715,Shengli Hunan Shan,35.17772,86.14777,MT,5102
9073786,Heizhu Shan,36.20728,88.37841,MT,5356
9073802,Gaoling Shan,35.72017,88.05021,MT,5660
9073804,Yumao Shan,35.34349,87.94534,MT,5159
9073806,Heiniu Shan,34.48464,87.68994,MT,5422
9073813,Hongtu Shan,35.0248,88.79765,MT,5637
9073818,Mantou Shan,36.04479,89.17396,MT,5052
9073819,Shiliu Feng,35.65897,88.98013,MT,5717
9076953,Zimuniu Ri,32.78032,81.89763,MT,5210
9092373,Mopan Shan,33.42681,82.80849,MT,5242
9113058,Gangqing Ri,31.03474,82.52042,MT,6143
9114068,Zhalabo,32.15802,83.18936,MT,5797
9114083,Zhache Ganshan,31.69615,82.61932,MT,5687
9114158,E'ajue,31.31823,82.42815,MT,5897
10316281,Seto Pokhari Himal,28.30737,85.595,MT,5890
10317519,Korlan Pari Himal,28.14198,86.17809,MT,5258
10317523,Pidin Himal,28.11111,86.21841,MT,5464
10317528,Sundemu Himal,28.09177,86.10728,MT,5205
10317529,Pamari Himal,28.05204,86.09083,MT,5713
10317539,Ralin Himal,28.08069,86.20406,MT,5999
10318013,Churke Himal,28.46694,85.10838,MT,5879
10318016,Kipu Himal,28.49674,85.15543,MT,6492
10322376,Rolwalin Himal,27.95549,86.30444,MT,5387
10322443,Ladun Himal,27.90531,86.44264,MT,6640
10630712,Chakung Gong,27.48871,88.78828,MT,5076
11027597,Kolunjili Mountain,36.90449,75.38649,MT,5752
11889493,Piyekelega,37.05929,76.22805,MT,5229
12256181,Nubuleluke Daban,36.47434,76.56297,MT,5361
12256182,Outula Borilike Daban,36.4776,76.67057,MT,5703
12256313,Lexchek Dawini,37.5781,74.93618,MT,5200
12256391,Gelan Shan,37.86616,74.9237,MT,5251
12257482,Chamar,28.0746,86.64986,MT,7274
12257483,No Jumba Kan,28.1068,86.7137,MT,7588
12257641,Khumbatse,28.02174,86.87183,MT,6562
12259571,Pannamu,30.44679,81.62093,MT,5225
12259572,Lapche Tuppa,30.43996,81.64622,MT,5235
12261100,Chharka Bhot Himal,29.57795,83.23197,MT,5674
12261269,Manshail,29.30169,83.81383,MT,6120
12261273,Chaklo,29.29334,84.08933,MT,5134
12261274,Panlamo,29.28467,84.06941,MT,5145
12335886,Araniko Chuli,29.17632,83.65755,MT,5755
12335887,Chanagor Bhanjyan,29.16524,83.64401,MT,5674
12335888,Chanabolo,29.18097,83.60882,MT,5722
12341662,Bhrikuti Shail,28.89392,84.22614,MT,6219
12343408,Takule,30.17816,81.35051,MT,5068
12343431,Mukchun Dada,29.14951,84.17243,MT,5315
12343433,Takarjon Dada,29.12455,84.18313,MT,5087
12343435,Matun Bhanjyan,29.11228,84.19873,MT,5311
12343441,Khun Dada,29.05881,84.18814,MT,5601
12343442,Gaugiri,29.04646,84.18872,MT,5926
12343443,Damodar Himal,29.05144,84.22081,MT,5671
12453651,Da'erwaza Tashi,38.87449,73.77644,MT,5203
12453976,Kailetaituo'er Muzitao,39.19032,73.7436,MT,5209
12454121,Kungai Shan,39.28493,74.2805,MT,5545
12514750,Zhongshanfeng,29.63798,101.92329,MT,6886
12518803,Gyala Peri,29.81496,94.97,MT,7294
12518804,Bairiga,29.16316,96.72356,MT,6882
12518805,Chagelazi,28.82327,98.06005,MT,6146
12534403,Jade Dragon Snow Mountain,27.09945,100.1776,MT,5596
12534404,Haba Snow Mountain,27.32193,100.10621,MT,5396
12534405,Yangmaiyong,28.35661,100.35675,MT,5958
12541537,Sanglung,29.66127,95.13715,MT,7095
12573782,Nama Feng,29.61828,101.80117,MT,5588
12808896,Mount Xuebaoding,32.67589,103.84656,MT,5588
12809188,Chiumo,27.90996,92.62562,MT,6890
3666950,Nevado del Tolima,4.6583,-75.3297,MT,5276
3668003,Pico Simon Bolivar,10.83516,-73.69251,MT,5774
3670563,Nevado del Ruiz,4.8926,-75.3238,MT,5300
3680691,Nevado del Huila,2.93333,-76.03333,MT,5365
3655650,Iliniza,-0.66148,-78.71532,MT,5248
3659708,Carihuairazo,-1.40694,-78.75,MT,5018
3754870,Cerro Altar,-1.66611,-78.41278,MT,5273
3754875,Cotopaxi,-0.68917,-78.42889,MT,5315
8522080,Lliniza Sur,-0.65985,-78.71433,MT,5084
494027,Gora Shkhara,42.99944,43.11167,MT,5201
551376,Gora Kazbek,42.69708,44.51792,MT,5033
563663,Mount Dzhangitau,43.01899,43.05119,MT,5058
1254166,Trisul,30.31278,79.77722,MT,7120
1255091,Talun,27.65566,88.13011,MT,7262
1256121,Siniolchu,27.75,88.31667,MT,6888
1256524,Shilla,32.40732,78.203,MT,6132
1257082,Saser Kangri,34.86678,77.75346,MT,7672
1257725,Sajum,33.3205,79.02706,MT,6064
1259113,Pyramid Peak,27.81667,88.18333,MT,6211
1260027,P'ao-han-li Shan,27.95256,88.84244,MT,7128
1261386,Nalikanta,30.7335,79.45424,MT,6500
1261990,Nanda Kot,30.28167,80.06833,MT,6861
1261991,Nanda Devi,30.37584,79.97077,MT,7816
1264957,Leo Pargial,31.88414,78.73499,MT,6816
1266317,Kolahoi,34.16584,75.32855,MT,5425
1267028,Khangchengyao,27.9861,88.65413,MT,6889
1267346,Kedarnath,30.7975,79.06749,MT,6940
1268079,Kanggardo Rize,27.86571,92.53136,MT,7060
1268235,Kamet,30.91982,79.59337,MT,7756
1268737,Kabru,27.61617,88.11636,MT,7412
1270219,Hathi Parbat,30.68428,79.7068,MT,6727
1272216,Dunagiri,30.51613,79.86683,MT,7066
1274665,Changabang,30.48333,80.01667,MT,6864
1274841,Chamkang,34.42339,79.22659,MT,6083
1277381,Bandarpunch,31.00277,78.55345,MT,6316
1277960,Badrinath,30.7333,79.2833,MT,7138
7839214,Chong Kundam Kangri II,35.19534,77.53906,MT,7004
8199227,Mentok,32.93651,78.18232,MT,6065
10315099,Bul Jot,33.12644,76.66675,MT,5028
10315108,Baleli Jot,33.07082,76.69138,MT,5470
10315113,Topon Jot,33.04938,76.65812,MT,5070
10319131,Dangria,31.6076,78.12507,MT,5129
10319133,Piragting,31.63614,78.14885,MT,5353
10319134,Chhoi,31.64045,78.11272,MT,5231
10322306,Bhatlai Tiba,31.28358,78.30845,MT,5072
10322353,Kailas,31.4946,78.3765,MT,6108
10322366,Purara Dani,31.3851,78.44656,MT,5144
10328220,Nar Parbat,30.7434,79.55141,MT,5621
10328226,Gauri Parbat,30.7178,79.70209,MT,6708
10328227,Durpata,30.71898,79.73909,MT,6030
10328342,Barmal,30.59945,79.6979,MT,5428
10328345,Oti Ka Danda,30.62634,79.72652,MT,5467
10328351,Dhanesh Parbat,30.65078,79.71204,MT,5272
10329115,Nanda Ghungti,30.34933,79.71861,MT,6309
10329117,Raunthi,30.3704,79.71962,MT,5835
10329258,Pabla Nag,30.74104,79.79348,MT,5540
10329280,Phulanga Parbat,30.67001,79.77257,MT,5297
10329328,Kalanka Choti,30.50363,79.94232,MT,6567
10329340,Lampak,30.64307,79.9324,MT,6010
10329341,Kunti Bhanar,30.65669,79.93249,MT,5602
10529925,Nichhang,34.1461,75.54846,MT,5257
10654711,Amarnath,34.22371,75.48447,MT,5186
10713777,Brammah,33.45613,76.08164,MT,6416
10713885,Kukinau,33.35779,76.15671,MT,5031
10713891,Brammah,33.45528,76.15614,MT,5677
10719337,Cheni Jot,32.97403,76.34124,MT,5210
10724526,Kulma Jot,32.95912,76.63475,MT,5229
10724531,Menthosa,32.91824,76.7134,MT,6282
10724535,Piwa,32.92501,76.6595,MT,5132
10724577,Malkutu Jot,32.87519,76.61646,MT,5231
10724606,Duphao Jot,32.85204,76.60792,MT,5039
10724607,Baihali Jot,32.83978,76.58895,MT,5196
10724966,Bara Kanda,32.56145,76.62032,MT,5108
10725550,Kuja-ka-Tilla,32.35306,76.63101,MT,5091
10747009,Bulti Hawe,31.72542,78.31246,MT,5175
10747080,Kailash,31.52105,78.3628,MT,6050
10747081,Chokas Rang,31.52969,78.3876,MT,5511
10934409,Dagai Jot,32.94861,76.77657,MT,5328
10934471,Phabrang,32.77474,76.80194,MT,6093
10934472,Siria Goh,32.7664,76.82164,MT,5505
15453,Kuh-e Zelzeleh Khiz,35.68311,58.48352,MT,5150
138041,Kuh-e Damavand,35.95508,52.11005,MT,5610
7624735,Kuh-e Alborz,36.31455,50.75278,MT,5025
191421,Mount Kenya,-0.15252,37.30833,MT,5199
1161940,Gora Kyzylagyn,39.34849,73.04308,MT,6646
1221150,Gora Kurumdy,39.45541,73.56711,MT,6614
1222582,Pik Pogranichnikov,39.47937,73.39361,MT,5295
1222600,Gora Ledyanoy Mys,39.46971,73.11686,MT,5115
1222622,Gora Kokchukurbashi,39.23333,73.58333,MT,5152
1222623,Gora Kek-Chukur,39.28406,72.30243,MT,5152
1222706,Pik Arkhar,39.46999,73.33283,MT,5257
1527594,Pik Nansena,42.14953,79.63098,MT,5697
1325010,Hkakabo Razi,28.3297,97.53591,MT,5881
3521275,Volcan Popocatepetl,19.02222,-98.62778,MT,5426
3521567,Volcan Pico de Orizaba,19.03084,-97.27082,MT,5636
1282702,Taweche,27.9,86.78,MT,6367
1283075,Manaslu,28.54992,84.55962,MT,8163
1283087,Makalu,27.88988,87.08944,MT,8463
1283103,Machhapuchchhre,28.49565,83.94614,MT,6993
1283118,Lobuche,27.96891,86.78302,MT,5280
1283128,Lhotse,27.96204,86.9337,MT,8516
1283140,Langtang Lirung,28.25611,85.51944,MT,7227
1283143,Langtang,28.26667,85.61667,MT,5952
1283200,Khumbila,27.84841,86.70934,MT,5761
1283253,Kanjirowa Himal,29.40793,82.7066,MT,6883
1283259,Kanchenjunga,27.70314,88.14739,MT,8586
1283271,Kala Pattar,27.99452,86.82834,MT,5545
1283400,Gauri Sankar,27.9568,86.33692,MT,7134
1283416,Mount Everest,27.98791,86.92529,MT,8848
1283457,Dhaulagiri,28.69669,83.49257,MT,8167
1283555,Chamlang,27.77546,86.97983,MT,7319
1283728,Api,30.00073,80.95018,MT,7132
1283729,Annapurna II,28.53495,84.12219,MT,7937
6941597,Annapurna I,28.59564,83.82053,MT,8091
6941653,Lamjung Himal,28.48914,84.1884,MT,6983
6941659,Nilgiri,28.67914,83.73633,MT,6940
6941668,Tukuche Peak,28.74554,83.55772,MT,6920
6941669,Dhampus Peak,28.7979,83.60527,MT,6012
6941677,Thorungste,28.80986,83.93881,MT,6482
6941678,yak Gawa,28.77849,83.91829,MT,6484
6941680,Chulu,28.74147,84.02807,MT,6584
6941682,Pisang Peak,28.64721,84.18454,MT,6091
6941998,Ama Dablan,27.86111,86.86111,MT,6812
7302315,Gimmigela Chuli I,27.74059,88.15867,MT,7350
7302332,Ngozumpa Kang I,28.10594,86.68415,MT,7916
7302333,Ngadi Chuli,28.50279,84.56619,MT,7871
7302334,Nuptse,27.96727,86.88696,MT,7864
7302354,Dhaulagiri II,28.76299,83.38795,MT,7751
7302355,Ngozumpa Kang II,28.10602,86.70612,MT,7743
8394249,N Surya Peak,28.08997,85.44346,MT,5145
8394251,Surya Peak,28.0808,85.43218,MT,5010
8394253,Langtang II,28.25979,85.49848,MT,6596
8394254,Naya Kanga,28.15283,85.5102,MT,5830
8394257,Ganesh II,28.37905,85.05667,MT,7118
8394259,Pabil,28.34578,85.0801,MT,7104
8394419,Dorje Lakpa,28.17432,85.77953,MT,6966
8436334,Chumbu,28.01414,86.78847,MT,6859
8436342,Shar Tse,27.9493,86.98318,MT,7444
8436343,Pethang Tse,27.95745,87.01601,MT,6643
9611306,Island Peak,27.92509,86.93763,MT,6165
9782442,Gyajin Kang,28.73335,84.37163,MT,7038
10316274,Pari Himal,28.29906,85.5456,MT,5553
10316275,Yubra Himal,28.27202,85.55618,MT,6412
10316334,Linsin Himal,28.17482,85.77703,MT,6758
10318018,Lumbo Himal,28.40579,85.00907,MT,5834
10318088,Kalo Pokhari Himal,28.30731,85.13579,MT,5871
10321073,Chimisedan Lek,28.16562,85.50998,MT,5596
10321074,Kanala Himal,28.16249,85.61303,MT,5887
10321075,Dorje Himal,28.169,85.67857,MT,6262
10321076,Linsin Himal,28.17788,85.72559,MT,5342
10321122,Urkin Kangari,28.17511,85.55859,MT,5230
11902560,Rajban Dada,29.44187,82.37018,MT,5254
11902633,Budha Budhi Lek,29.38182,82.43651,MT,5346
11902639,Malun Lek,29.49916,82.44491,MT,5419
11902651,Patarasi Himal,29.41143,82.55727,MT,6502
11902652,Bhulu Lhasa,29.44099,82.5947,MT,5939
11902653,Kanjirowa North,29.39457,82.61511,MT,6024
11902656,Jagdula Lek,29.30537,82.60507,MT,5763
11902657,Palta Thumba,29.3007,82.58436,MT,5793
11902658,Kasi Dalpha Dada,29.29143,82.56944,MT,5833
11902665,Kanjirowa South,29.37425,82.63237,MT,6510
12257485,Dejunkhon Himal,28.04562,86.61055,MT,6151
12257486,Pasan Lhamu Chuli,28.06772,86.60955,MT,6679
12258648,Khada Lek,29.79478,82.40258,MT,5591
12261107,Lunchhun,29.58837,83.13323,MT,5442
12281732,Syanath,29.61349,82.57101,MT,5630
12341660,Kumlun Himal,28.90657,84.18224,MT,6079
12341665,Yonmoso Dada,28.77594,84.24703,MT,5102
12341666,Jomson Himal,28.84177,84.14214,MT,5893
12341670,Selibun,28.88448,84.17172,MT,6158
12341686,Teri Himal,28.84462,84.05046,MT,5745
12342525,Kyankun Dula,29.21751,83.83928,MT,5848
12343376,Tijam,30.11536,81.33577,MT,5088
12343377,Hilsa Tuppa,30.11689,81.3213,MT,5189
12343446,Kyumupani Dada,29.01519,84.09014,MT,5414
12343748,Pankar Himal,28.6016,84.7321,MT,5136
12343849,Dhawalagiri Three,28.75407,83.37709,MT,5679
12343890,Sechi Lek,28.81123,83.60871,MT,5469
12395147,Naulek,27.68682,86.90238,MT,5945
12402594,Chukhun,27.93866,86.87469,MT,6161
12403222,Tare Kan,28.6059,83.91301,MT,5293
12403509,Norbukan,29.12042,83.07326,MT,5774
12403533,Thomun Lek,29.16176,83.1997,MT,5222
12739462,Ghustun,28.66575,83.25212,MT,5344
12905011,Phalkandada,28.95605,83.74876,MT,6051
12905040,Purkun,28.81488,83.99076,MT,5635
12905041,Yakwakan,28.808,83.94275,MT,5402
12905066,Thoran Phedi,28.77635,83.96148,MT,5067
12905068,Syagan,28.76744,83.93991,MT,5502
12905069,Gundan,28.76204,83.98723,MT,5023
12909462,Chamar,28.55507,84.94415,MT,7165
3691165,Nevado de Tuco,-9.86667,-77.2,MT,5479
3694805,Cerro Milluacocha,-8.80529,-77.7348,MT,5404
3696347,Nevado Huascaran,-9.1166,-77.60477,MT,6768
3697982,Nevado Cojup,-9.41076,-77.41845,MT,6065
3699434,Nevado Barcapalca,-9.3,-77.33333,MT,5165
3744880,Cerro Contrahierbas,-7.71694,-77.56139,MT,5954
3925346,Cerro Zaparani,-16.86119,-69.95736,MT,5221
3925538,Nevado Yerupaja,-10.26889,-76.905,MT,6634
3925671,Cerro Yancca,-15.67944,-72.37333,MT,5214
3925896,Cerro Yaiculle,-15.02899,-72.06137,MT,5174
3925949,Cerro Vizcachas,-16.91389,-70.17377,MT,5290
3926697,Volcan Ubinas,-16.355,-70.90305,MT,5672
3927091,Nevado Toroyoc,-12.41972,-75.665,MT,5205
3927140,Cerro Toro,-17.00117,-70.4603,MT,5424
3927166,Nevado Toro,-12.60657,-75.76559,MT,5150
3927209,Cerro Tomaromani,-17.18069,-69.79728,MT,5006
3927389,Cerro Tirane,-15.33481,-72.55218,MT,5105
3927556,Volcan Ticsani,-16.76587,-70.60189,MT,5408
3927567,Cerro Ticllaccahua,-15.06519,-71.80957,MT,5063
3927586,Nevado Ticaco,-17.35083,-70.04333,MT,5017
3927860,Nevado Tanranioc,-12.41528,-75.64611,MT,5181
3928104,Cerro Tacune,-16.31349,-71.28817,MT,5500
3928237,Cerro Surinto,-16.49438,-71.0161,MT,5222
3928238,Cerro Surichico,-17.08389,-69.93944,MT,5156
3928240,Cerro Suri,-17.06775,-69.99282,MT,5507
3928350,Cerro Sucna,-15.59556,-72.21,MT,5120
3928387,Cerro Sorpresani,-17.4036,-69.87115,MT,5215
3928397,Cerro Soravico,-17.11164,-69.77341,MT,5000
3928456,Cerro Soncco Orcco,-15.24343,-72.69442,MT,5191
3928478,Nevado Solimana,-15.41,-72.89361,MT,6093
3928497,Cerro Sojo,-12.74015,-75.66196,MT,5055
3928502,Cerro Soirococha,-13.15,-73.1,MT,5297
3928556,Cerro Sitpicota o Huaynapaucarani,-17.46025,-69.68278,MT,5381
3928763,Nevado Sepregina,-15.5275,-71.91722,MT,5380
3928950,Nevado Sara Sara,-15.32592,-73.44295,MT,5505
3928970,Cerro Saraccoto,-15.25472,-72.78694,MT,5209
3928976,Nevado Sapojahuana,-15.1675,-72.68361,MT,5263
3929027,Cerro Santo Coronado,-16.58984,-70.20603,MT,5219
3929088,Cerro Santa Rosa,-10.50428,-76.70547,MT,5706
3929347,Cerro San Pedro,-17.1056,-70.21174,MT,5259
3929393,Cerro San Miguel,-16.24917,-70.33888,MT,5344
3929647,Cerro Sani,-15.35305,-71.88029,MT,5177
3929958,Cerro Sallajaque,-16.98339,-70.42852,MT,5106
3930003,Nevado Salcantay,-13.33432,-72.5441,MT,6271
3930134,Cerro Sacamana,-15.52474,-70.54257,MT,5040
3930178,Cerro Runtucori,-14.5,-73.86667,MT,5000
3930189,Nevado Runcho,-12.19977,-76.03473,MT,5045
3930323,Cerro Ritipata,-13.42161,-74.69028,MT,5000
3930694,Cerro Quiscapanca,-15.46358,-72.10811,MT,5384
3930729,Cerro Quinuta,-17.63333,-69.8,MT,5335
3930771,Cerro Quinaquinani,-16.6328,-70.03661,MT,5200
3930865,Nevado Quilca,-15.31346,-70.73309,MT,5335
3931012,Cerro Quenameche,-16.8933,-70.41277,MT,5016
3931013,Nudo de Quenamari,-14.15,-70.38333,MT,5294
3931172,Cerros Purupuruni,-17.306,-69.91358,MT,5315
3931330,Cerro Pumaranra,-15.48779,-72.50831,MT,5089
3931588,Cerro Pucaylla,-15.52847,-72.47125,MT,5238
3931597,Cerro Pucasaya,-16.25439,-71.20989,MT,5000
3931638,Cerro Pucara,-15.41558,-71.65206,MT,5045
3931880,Nevado Portuguesa,-13.37391,-74.63747,MT,5023
3932154,Cerro Pisarane,-17.27687,-69.93807,MT,5417
3932373,Cerro Pichupichu,-16.48333,-71.25,MT,5664
3932632,Cerro Paullo,-17.09337,-69.82728,MT,5041
3932915,Cerro Parihuana,-15.24132,-70.72587,MT,5034
3932931,Cerro Pariachaca,-12.01667,-76.0,MT,5771
3932940,Cerro Parhuayane,-15.4863,-71.86178,MT,5100
3933081,Cerro Pantiuso,-16.97079,-70.12005,MT,5546
3933283,Cerro Pampacolca,-15.31667,-72.21667,MT,5343
3933363,Palomani Tranca,-14.71667,-69.2,MT,5723
3933364,Palomani Grande,-14.7,-69.23333,MT,5274
3933365,Palomani Cunca,-14.73333,-69.23333,MT,5306
3933552,Cerro Pajujasa,-16.45671,-71.08251,MT,5192
3933590,Cerro Pahuana,-15.73556,-72.04278,MT,5102
3933642,Cerro Pacoorcco,-15.59041,-72.36037,MT,5090
3933748,Cerro Pacchiauqui,-16.81875,-70.18264,MT,5344
3933933,Nevado Oscollane,-15.23086,-70.79156,MT,5210
3934220,Cerro Nunupujo,-15.7563,-71.7829,MT,5011
3934251,Cerro Nocarani,-16.13085,-71.53874,MT,5784
3934272,Nevado Ninacuyo,-14.6,-69.5,MT,5246
3934277,Cerro Ninacara,-17.08111,-69.58833,MT,5030
3934491,Cerro Mullijalla,-16.77303,-70.1112,MT,5013
3934782,Cerro Mojona,-15.23101,-72.21111,MT,5063
3934840,Nevado Mismi,-15.52528,-71.69083,MT,5597
3935391,Cerro Maralinane,-16.72043,-70.58762,MT,5147
3935543,Nevado Malmanya,-14.21033,-72.4917,MT,5170
3936005,Cerro Lopez Extrana,-17.16556,-70.1056,MT,5222
3936176,Cerro Llipllina,-13.17528,-74.90955,MT,5050
3936305,Cerro Llallahua,-17.065,-69.545,MT,5000
3936820,Nevado Larjanco,-16.98324,-70.09964,MT,5526
3936844,Cerro Larelare,-16.4837,-70.60619,MT,5076
3936988,Nevado Lamparasi,-15.21763,-70.82711,MT,5265
3937000,Nevado La Monja,-17.63222,-69.79832,MT,5444
3937122,Cerro La Horqueta,-16.19943,-71.56759,MT,5484
3937256,Loma La Colorada,-16.12336,-71.51314,MT,5017
3937403,Cerro Koverane,-17.17704,-69.88324,MT,5105
3937481,Cerro Junopunta,-15.42518,-72.05963,MT,5462
3937524,Cerro Jucure,-17.32522,-69.68982,MT,5223
3937579,Cerro Jollpa,-15.72444,-72.36056,MT,5226
3937810,Cerro Jatitapadja,-16.63056,-70.17616,MT,5257
3937874,Cerro Jaquela,-16.51967,-69.91567,MT,5067
3937976,Cerro Jamajane,-15.13056,-72.63944,MT,5130
3938042,Cerro Jahsaya,-15.27472,-72.72518,MT,5144
3938259,Nevado Inuma,-17.46089,-69.83915,MT,5675
3938328,Cerro Inciensocucho,-17.22389,-70.06389,MT,5084
3938465,Cerro Iglisane,-16.39688,-70.53924,MT,5055
3938470,Cerro Ifaro,-16.62867,-69.98333,MT,5047
3938481,Cerro Ichurasi,-17.07167,-70.19694,MT,5315
3938547,Cerro Huspayaca,-15.58916,-72.41057,MT,5006
3938582,Nevado Humantay,-13.36667,-72.6,MT,5473
3938699,Cerro Huillcayo,-15.53694,-71.68444,MT,5198
3938859,Nevado Huayquera,-15.34774,-70.70896,MT,5171
3939010,Nevado Huayanay,-13.29083,-72.39972,MT,5464
3939136,Cerro Huarucani,-15.26667,-70.80944,MT,5037
3939276,Nevado Huarancante,-15.73333,-71.52278,MT,5426
3939310,Cerro Huaraco,-15.16702,-72.49651,MT,5005
3939407,Cerro Huanipaco,-15.10011,-73.09055,MT,5129
3939426,Cerro Huancure,-17.14166,-69.68052,MT,5074
3939428,Nevado Huancune,-17.59519,-69.78926,MT,5567
3939438,Cerro Huancravilca,-12.4763,-75.40139,MT,5066
3939583,Cerro Huanca,-15.28783,-72.19324,MT,5200
3939703,Cerro Huamanrazo,-12.91022,-75.03963,MT,5304
3939793,Cerro Huallatauqui,-16.90284,-69.56539,MT,5173
3939836,Nevado Hualca Hualca,-15.7202,-71.8606,MT,6025
3939856,Cerro Huajancallay,-13.27651,-74.79135,MT,5100
3939920,Cerro Huagra,-15.12722,-71.85,MT,5239
3939936,Cerro Huacullani,-15.93417,-71.51489,MT,5290
3939945,Nevado Huacshah,-10.40615,-76.93578,MT,5644
3940014,Cerro Huachcca,-15.1885,-73.10104,MT,5022
3940120,Cerro Horquetilla,-16.4092,-71.25102,MT,5473
3940186,Nevado Hipocapac,-16.62365,-70.54313,MT,5576
3940874,Cerro Fundicion,-15.33083,-70.6075,MT,5025
3940932,Nevado Firura,-15.23608,-72.64069,MT,5498
3941122,Cerro Escribano,-15.50806,-72.06556,MT,5235
3941640,Nevado Curahuara,-16.71372,-69.99581,MT,5254
3941733,Nevado Culluncuya,-15.45278,-71.80944,MT,5556
3942002,Cerro Creston Grande,-16.47439,-71.24464,MT,5508
3942111,Cerro Cosana,-15.23972,-71.71972,MT,5004
3942179,Nevado Coropuna,-15.54699,-72.66156,MT,6377
3942260,Cerro Coracahue,-16.76542,-70.3008,MT,5259
3942417,Cerro Pico,-17.50853,-69.68999,MT,5367
3942457,Cerro Condori,-16.21423,-71.14737,MT,5256
3942460,Cerro Condori,-15.30965,-71.08981,MT,5009
3942472,Cerro Condorguaguachave,-16.75117,-69.98567,MT,5000
3942609,Cerro Colquerane,-15.92231,-70.84568,MT,5171
3942614,Cerro Colqueccahua,-15.2925,-70.94889,MT,5210
3942837,Nevado Coisopacana,-13.33333,-73.05,MT,5176
3942995,Nevado Citac,-12.80201,-75.23563,MT,5304
3943122,Cerro Churilaca,-16.78982,-70.35425,MT,5260
3943152,Cerro Chuquihua,-15.31093,-72.012,MT,5045
3943158,Nevado Chuquiananta,-17.08302,-70.46048,MT,5300
3943165,Nevado Chupiquina,-17.66778,-69.79988,MT,5574
3943209,Cerro Chunta Pata,-11.10583,-76.8825,MT,5000
3943341,Cerro Chuimunco,-16.59988,-69.99064,MT,5082
3943377,Cerro Chuchuaura,-17.05694,-70.18694,MT,5285
3943442,Cerro Choropata,-16.5323,-70.94258,MT,5129
3943452,Nevado Choquetacarpo,-13.25,-72.88333,MT,5520
3943461,Cerro Choquepata,-16.20267,-70.33176,MT,5318
3943471,Cerro Choquecota,-16.65926,-69.96376,MT,5200
3943750,Cerro Chinchon,-15.33023,-72.20796,MT,5400
3943978,Cerro Chila,-17.20929,-69.72242,MT,5184
3943979,Cerro Chila,-15.32317,-71.21653,MT,5031
3943981,Cerro Chila,-15.16806,-71.90222,MT,5111
3944280,Cerro Charapurane,-17.46456,-69.71959,MT,5241
3944638,Cerro Chacraccocha,-10.4653,-76.70152,MT,5000
3944829,Nevado Cercacerca,-16.54464,-70.18141,MT,5200
3944830,Cerro Cerani,-15.49013,-72.17967,MT,5229
3945085,Cerro Ccallanave,-16.70563,-69.93428,MT,5203
3945172,Caurapequena,-16.85946,-69.57198,MT,5100
3945256,Cerro Casiri,-15.46194,-72.17139,MT,5631
3945449,Nevado Carhuarazo,-12.96328,-75.03357,MT,5054
3945451,Nevado Ccarhuaraso,-14.33174,-73.76334,MT,5124
3945470,Cerro Carhuajasa,-12.85116,-75.43464,MT,5005
3945896,Cerro Canacanani,-16.28891,-70.3598,MT,5329
3945953,Cerro Camillata,-16.9039,-70.55191,MT,5053
3945976,Nevado Camas,-13.4,-72.66667,MT,5170
3946022,Cerro Calqui,-15.06111,-72.80667,MT,5058
3946063,Cerro Callatia,-15.39397,-70.93699,MT,5138
3946133,Cerro Calientes,-17.165,-70.20333,MT,5358
3946170,Nevado Calcha,-15.92351,-71.44324,MT,5257
3946196,Cerro Calapatia,-16.66825,-70.13866,MT,5024
3946261,Cerro Cajchaya,-15.03667,-72.19273,MT,5068
3946567,Cerro Buarahuarani,-17.41361,-69.665,MT,5200
3946632,Cerro Bomboya,-15.55667,-71.89111,MT,5216
3946751,Cerro Bencasa,-16.46516,-69.8842,MT,5161
3946802,Barroso Rocoso,-17.59556,-69.88111,MT,5360
3946855,Cerro Banco,-17.00454,-70.36731,MT,5257
3946870,Cerro Baldio,-16.45537,-71.04616,MT,5163
3947037,Nevado Auzangate,-13.78828,-71.22866,MT,6384
3947207,Cerro Asnohuanusja,-15.4279,-72.1832,MT,5245
3947264,Nevado Arundane,-17.01136,-70.53522,MT,5099
3947308,Cerro Arichua,-16.82933,-69.56196,MT,5000
3947375,Cerro Ararac,-10.36329,-76.84239,MT,5074
3947530,Nevado Antarazo,-12.93345,-75.12964,MT,5180
3947576,Cerro Antajave,-17.33669,-69.84844,MT,5390
3947577,Cerro Antajave,-16.92421,-69.89709,MT,5204
3947579,Cerro Antajarane,-16.64317,-70.10965,MT,5338
3947700,Cerro Angascocha,-13.3954,-75.03926,MT,5000
3947874,Cerro Ancachita,-15.63194,-71.53389,MT,5131
3947898,Nevado Ananta,-15.83972,-71.665,MT,5240
3947931,Nevado Ampay,-13.55776,-72.93092,MT,5236
3947941,Nevado Amparay,-13.38333,-72.66667,MT,5418
3948073,Nevado Altar,-12.93333,-75.33333,MT,5183
3948120,Allincapac,-13.90977,-70.40787,MT,5805
3948199,Cerro Albaro,-15.20649,-72.16852,MT,5081
3948294,Cerro Aicano,-15.20147,-72.75049,MT,5048
3948436,Cerro Aconcahua,-16.82867,-69.90421,MT,5000
3948479,Nevado Ocobamba,-13.34389,-72.43917,MT,5126
3948540,Nevado Achacollo,-17.53265,-69.8589,MT,5690
3948742,Cerro Yanacocha,-14.45582,-70.90193,MT,5000
3948744,Nevado Cunurana,-14.54809,-70.8319,MT,5420
3948745,Cerro Chocnacota,-14.31639,-70.75111,MT,5300
3948749,Nevado Lloccesa,-14.14778,-70.57472,MT,5335
3948750,Nevado La Huana,-14.05222,-70.63889,MT,5184
3948751,Nevado Pumanota,-14.07139,-70.79806,MT,5495
3948752,Nevado Tutallipina,-14.04194,-70.85333,MT,5200
3948753,Nevado Jatun Sallica,-14.12383,-70.80622,MT,5200
3948756,Cerro Cuzcoccahuarina,-14.04056,-71.10639,MT,5218
3948757,Cerro Jacura,-14.09596,-71.09133,MT,5032
3948758,Cerro Incaperca,-14.12222,-71.21472,MT,5075
3948761,Cerro Uchuy Aucara,-14.3425,-70.91528,MT,5006
3948762,Nevado Chinchina,-14.3625,-71.02556,MT,5226
3948763,Nevado Moscaya,-14.41671,-70.97882,MT,5339
3948789,Nevado Sullullani,-13.73492,-70.73572,MT,5290
3948791,Nevado Riticocha,-13.76642,-70.57602,MT,5100
3948792,Nevado Pacoananta,-13.78432,-70.86771,MT,5642
3948793,Nevado Condoriguena,-13.79811,-70.9343,MT,5431
3948797,Nevado Pico Tres,-13.74744,-71.13692,MT,6058
3948799,Nevado Salcantay,-13.69959,-71.09438,MT,6271
3948802,Nevado del Inca,-13.84144,-71.31195,MT,5186
3948805,Nevado Jollyepunco,-13.52566,-71.23591,MT,5382
3948839,Nevado Chainapuerto,-13.19985,-71.98143,MT,5353
3948863,Cerro Huamancharpa,-14.39417,-72.37889,MT,5000
3948869,Cerro Piste,-14.3316,-73.08124,MT,5100
3948895,Cerro Condorsallana,-14.91054,-72.84598,MT,5262
3948896,Cerro Capascocha,-14.85759,-72.90916,MT,5038
3948897,Cerro Almallojasa,-14.85151,-72.77234,MT,5080
3948901,Cerro Chocco,-14.9675,-72.62544,MT,5183
3948902,Cerro Chaucalla,-14.81533,-72.61298,MT,5216
3948903,Cerro Sorapata,-14.77508,-72.70372,MT,5126
3948906,Cerro Cullpacucho,-14.79996,-72.41602,MT,5300
3948907,Cerro Pucuray,-14.89502,-72.27022,MT,5109
3948908,Nevado Huajrahuire,-14.975,-72.20694,MT,5425
3948912,Cerro Huiscatongo,-14.78063,-72.28448,MT,5209
3948925,Nevado Tranca,-14.64174,-72.78915,MT,5110
3948930,Nevado Crespo,-14.66611,-72.40778,MT,5240
3948932,Cerro Huaytane,-14.65969,-72.47048,MT,5430
3948934,Nevado Huayunca,-14.61604,-72.50201,MT,5300
3948935,Cerro Crespo,-14.76301,-72.39373,MT,5323
3949065,Cerro Villane,-17.53,-69.88556,MT,5206
3949066,Cerro Chila,-17.51889,-69.86833,MT,5327
3949067,Nevado Barroso,-17.55528,-69.87056,MT,5730
3949070,Cerro Ajara,-17.56028,-69.89778,MT,5048
3949071,Cerro Churivicho,-17.585,-69.87556,MT,5508
3949078,Cerro Toqueta,-17.59639,-69.88139,MT,5425
3949121,Cerro Chanaconcorane,-17.56583,-69.83611,MT,5383
3949198,Cerro Baquetane,-16.03562,-71.51028,MT,5015
3949456,Cerro Sabagay,-16.5053,-71.07153,MT,5009
3950240,Cerro Jollojello,-15.9125,-71.78639,MT,5037
3950245,Cerro Chuntahayco,-15.90222,-71.77139,MT,5027
3950266,Nevado Sabancaya,-15.78694,-71.85556,MT,5897
3950354,Nevado Ananto,-15.81222,-71.68222,MT,5278
3950355,Cerro Tacotacone,-15.80722,-71.66528,MT,5073
3950566,Cerro Nino Orjo,-15.54649,-72.72007,MT,5010
3950567,Cerro Escalera,-15.54278,-72.70639,MT,5129
3950568,Cerro Torriva,-15.5108,-72.60896,MT,5183
3950569,Cerro Cuncaicha,-15.53806,-72.56283,MT,5525
3950577,Nevado Sabancaya,-15.74222,-71.85583,MT,5883
3950578,Cerro Tacujani,-15.73657,-71.82497,MT,5125
3950580,Cerro Jatun Rumi,-15.79056,-71.81611,MT,5065
3950588,Nevado Chucura,-15.74306,-71.5375,MT,5234
3950589,Cerro Hornillo,-15.65111,-71.52583,MT,5115
3950590,Cerro Llallahue,-15.665,-71.54444,MT,5064
3950594,Cerro Jello Jello,-15.71889,-71.50806,MT,5220
3950595,Cerro Seccara,-15.72585,-71.54977,MT,5084
3950608,Cerro Achumani,-15.70194,-71.85667,MT,5331
3950609,Cerro Luque Orjo,-15.6975,-71.84361,MT,5267
3950610,Cerro Huancarane,-15.68833,-71.84167,MT,5234
3950616,Nevado Shihuerjo,-15.6975,-71.88222,MT,5306
3950617,Nevado Puye Puye,-15.67944,-71.88444,MT,5253
3950618,Cerro Ahuashune,-15.67667,-71.90444,MT,5135
3950622,Nevado Lipayoc,-15.71028,-71.9525,MT,5191
3950650,Cerro Colquere,-15.54733,-71.6877,MT,5200
3950651,Cerro Humajala,-15.57306,-71.68028,MT,5055
3950669,Cerro Antacasa,-15.60528,-71.51457,MT,5043
3950682,Cerro Puma Chiri,-15.52,-71.65222,MT,5131
3950686,Cerro Chayco,-15.53694,-71.72722,MT,5198
3950688,Nevado Quehuisha,-15.52611,-71.75944,MT,5514
3950689,Cerro Anuncarane,-15.5408,-71.77418,MT,5062
3950697,Cerro Sorehuire,-15.51389,-71.86611,MT,5131
3950698,Cerro Sillane,-15.53361,-71.90056,MT,5200
3950909,Cerro Huajra Huire,-15.54222,-72.53361,MT,5196
3950910,Cerro Pomullca,-15.53457,-72.54345,MT,5240
3950972,Cerro Quena-Ranra,-15.51898,-72.57657,MT,5297
3951702,Cerro Ccellocello,-15.70119,-71.4835,MT,5114
3951720,Cerro Banderani,-15.93222,-71.49056,MT,5087
3951721,Cerro Anccasi,-15.935,-71.45111,MT,5257
3951722,Cerro Coline,-15.94972,-71.43889,MT,5140
3951768,Cerro Condorame,-15.54145,-71.26428,MT,5023
3951778,Cerro Sulcachuca,-15.97759,-71.08658,MT,5231
3951927,Cerro Misahuana,-15.54611,-72.39667,MT,5165
3951982,Cerro Chocanane,-17.0564,-70.47562,MT,5063
3951983,Cerro Huanuma,-17.06496,-70.45885,MT,5200
3951985,Cerro Pantara,-17.09403,-70.47136,MT,5080
3952046,Nevado Arundaya,-16.99316,-70.54433,MT,5028
3952048,Cerro Corazon,-17.03142,-70.52802,MT,5086
3952101,Cerro Zuripujo,-17.03889,-70.34833,MT,5095
3952190,Cerro Yucamane Chico,-17.14188,-70.20756,MT,5550
3952197,Cerro San Francisco,-17.0301,-70.07661,MT,5176
3952199,Cerro Achalaje,-17.03302,-70.07144,MT,5106
3952202,Nevado Iscailarjanco,-17.00717,-70.09974,MT,5415
3952210,Cerro Pantara,-17.06196,-70.15443,MT,5005
3952212,Nevado Cancave,-17.02263,-70.14272,MT,5385
3952213,Cerro Caracara,-17.04412,-70.15613,MT,5173
3952215,Cerro Llallan,-17.04831,-70.17369,MT,5311
3952217,Cerro Amarillo,-17.08961,-70.20992,MT,5023
3952222,Cerro Pollailla,-17.07469,-70.07331,MT,5163
3952223,Cerro Zaparani,-17.07933,-70.07087,MT,5073
3952244,Cerro Chajina,-17.21689,-70.0684,MT,5065
3952339,Cerro Sallapacja,-17.35116,-70.03617,MT,5017
3952426,Cerro Amane,-17.14121,-70.12149,MT,5057
3952431,Cerro Choreveco,-17.1253,-70.106,MT,5000
3952677,Cerro Anca Pahuas,-15.00802,-72.45927,MT,5000
3952678,Cerro Condori,-15.01779,-72.47263,MT,5208
3952681,Cerros Chullunjia,-15.03313,-72.4721,MT,5067
3952682,Cerro Yanama,-15.00932,-72.41246,MT,5115
3952687,Cerro Pinta,-15.01027,-72.39084,MT,5023
3952724,Cerro Ayccaje,-15.38528,-72.05833,MT,5087
3952726,Cerro Mamanujacha,-15.41031,-72.0284,MT,5085
3952727,Cerro Alejopunta,-15.40333,-72.05433,MT,5217
3952728,Cerro Condor,-15.41554,-72.06354,MT,5310
3952733,Cerro Aicaque,-15.40383,-72.04299,MT,5075
3952737,Cerro Anasquima,-15.44131,-72.05224,MT,5094
3952740,Cerro Huarajuyoc,-15.42192,-72.022,MT,5057
3952741,Cerro Alcasane,-15.42544,-72.07597,MT,5256
3952748,Cerro Huactana,-15.46347,-72.05941,MT,5145
3952750,Cerro Sani,-15.48666,-72.06848,MT,5124
3952751,Cerro Sillanque,-15.48806,-72.07111,MT,5139
3952754,Cerro Coropuna,-15.47366,-72.07407,MT,5170
3952755,Cerro Jesjapanca,-15.49992,-72.06489,MT,5197
3952756,Cerro Chuanupunta,-15.44385,-72.0777,MT,5140
3952759,Cerro Casire,-15.45256,-72.15485,MT,5215
3952760,Cerro Yuraccasa,-15.44889,-72.16241,MT,5465
3952761,Cerro Cerani,-15.45642,-72.16359,MT,5225
3952764,Cerro Tapaya,-15.49534,-72.19,MT,5096
3952765,Cerro Yanajaja,-15.46109,-72.18847,MT,5173
3952782,Cerro Toriapujro,-15.48667,-72.48222,MT,5047
3952783,Cerro Huagapalca,-15.473,-72.47823,MT,5048
3952784,Cerro Llallahue,-15.47083,-72.46056,MT,5000
3952786,Cerro Oscollo,-15.44694,-72.48972,MT,5065
3952892,Cerro Sani,-15.23149,-72.1384,MT,5015
3952899,Cerro Posoco,-15.30688,-72.12457,MT,5000
3952915,Cerro Huanacotaqui,-15.30237,-72.11775,MT,5077
3952929,Cerro Pena Blanca,-15.39252,-72.12388,MT,5197
3952931,Cerro Huahuahuahua,-15.38145,-72.13199,MT,5150
3952935,Cerro Mare,-15.37033,-72.12468,MT,5160
3952941,Cerro Panti,-15.41144,-72.0856,MT,5240
3952990,Cerro Yaniani,-15.43186,-72.08712,MT,5216
3952992,Cerro Samacasa,-15.41885,-72.10557,MT,5200
3952993,Cerro Sahuarque,-15.43431,-72.10109,MT,5495
3952994,Cerro Airicota,-15.44917,-72.105,MT,5413
3952996,Cerro Fuysia,-15.4557,-72.10892,MT,5442
3952999,Cerro Tacsia,-15.43867,-72.14307,MT,5205
3953000,Cerro Choquepirhua,-15.42036,-72.16765,MT,5400
3953018,Cerro San Felix,-15.43887,-72.17061,MT,5330
3953019,Cerro Sandoalcalde,-15.41639,-72.17639,MT,5524
3953020,Cerro Chila Pillune,-15.40694,-72.18778,MT,5400
3953021,Cerro Venayoc,-15.4218,-72.20432,MT,5233
3953022,Cerro Ticlla,-15.41332,-72.20882,MT,5303
3953023,Cerro Ticllaloma,-15.42531,-72.21467,MT,5143
3953046,Cerro Apacheta de Tucsa,-15.42913,-72.21129,MT,5037
3953056,Cerro Huachalanqui,-15.41778,-72.26333,MT,5111
3953180,Cerro Sani,-15.23013,-72.1768,MT,5195
3953183,Cerro Condorcacha,-15.25343,-72.17548,MT,5200
3953184,Cerro Pabellon,-15.27544,-72.15828,MT,5018
3953185,Cerro Manzanilla,-15.2696,-72.16912,MT,5099
3953187,Cerro Solimana,-15.33119,-72.16259,MT,5242
3953188,Cerro Hospicio,-15.34656,-72.1661,MT,5309
3953189,Cerro Huayllayoc,-15.34312,-72.16476,MT,5300
3953190,Cerro Pabellon,-15.31139,-72.16806,MT,5099
3953199,Cerro Huaytaloma,-15.32917,-72.1875,MT,5113
3953200,Cerro Tacusayhualoma,-15.31008,-72.17775,MT,5081
3953201,Cerro Joma,-15.30011,-72.16706,MT,5036
3953220,Cerro Huayllahuaylla,-15.16367,-72.16089,MT,5043
3953223,Cerro Huayllatarpuna,-15.25557,-72.18408,MT,5380
3953226,Cerro Jama,-15.24727,-72.19713,MT,5064
3953227,Cerro Japo,-15.26701,-72.19938,MT,5190
3953228,Cerro Caurijata,-15.26955,-72.18403,MT,5157
3953230,Cerro Huaytaloma,-15.29314,-72.2034,MT,5263
3953231,Cerro Quelloquello,-15.27908,-72.16742,MT,5049
3953232,Cerro Sullucullahua,-15.29935,-72.1883,MT,5200
3953233,Cerro Huayta,-15.32293,-72.19724,MT,5400
3953235,Cerro Mollupica,-15.354,-72.21646,MT,5376
3953237,Cerro Huamanihuayta,-15.35694,-72.19528,MT,5210
3953238,Cerro Pushca,-15.35773,-72.1772,MT,5328
3953239,Cerro Yuaytacondorsenja,-15.37068,-72.19283,MT,5345
3953240,Cerro Apacheta,-15.38646,-72.18274,MT,5328
3953241,Cerro Tocllatoclla,-15.39056,-72.19556,MT,5027
3953242,Cerro Ticlla,-15.39965,-72.20088,MT,5171
3953243,Cerro Colorado,-15.38879,-72.16277,MT,5267
3953244,Cerro Culipata,-15.36996,-72.14367,MT,5150
3953245,Loma Cacamayo,-15.37841,-72.14674,MT,5125
3953246,Cerro Palaza,-15.3975,-72.13361,MT,5160
3953247,Cerro Chila,-15.40647,-72.16596,MT,5655
3953249,Cerro Faljon,-15.40307,-72.1525,MT,5429
3953252,Cerro Ticllo Ticllo,-15.43463,-72.16633,MT,5386
3953254,Cerro Japotani,-15.38017,-72.23395,MT,5192
3953256,Cerro Chuanuma,-15.3655,-72.22369,MT,5432
3953260,Cerro Pacque,-15.37583,-72.26222,MT,5012
3953300,Cerro Occocucho,-15.24222,-72.19808,MT,5049
3953302,Cerro Apo,-15.27387,-72.21613,MT,5104
3953311,Cerros Huilcane,-15.22972,-72.24741,MT,5051
3953314,Cerro Huanacagua,-15.3315,-72.24177,MT,5200
3953316,Cerro Aseruta,-15.31444,-72.21889,MT,5359
3953544,Cerro Pirhua,-15.04337,-71.44268,MT,5000
3954024,Cerro Pauca,-14.43894,-71.1522,MT,5129
3954035,Cerro Tacllo,-14.44972,-71.13944,MT,5000
3954086,Cerro Uchuycucho,-14.42778,-71.00917,MT,5339
3954087,Cerro Yanarangra,-14.43444,-71.02694,MT,5000
3954090,Cerro Capani Alto,-14.40389,-71.03278,MT,5000
3954117,Cerro Viluyo,-14.43083,-71.15972,MT,5000
3954172,Cerro Pucaloma,-14.33725,-71.08658,MT,5015
3954189,Cerro Viachayoc,-14.36785,-71.04998,MT,5260
3954190,Cerro Chaupitiana,-14.37861,-71.04972,MT,5000
3954191,Cerro Cruzcunca,-14.38472,-71.055,MT,5009
3954192,Cerro Colquene,-14.39528,-71.06139,MT,5000
3954193,Cerro Lacana,-14.39861,-71.02639,MT,5046
3954195,Cerro Chililin,-14.3875,-71.0225,MT,5027
3954197,Nevado Hualahuantay,-14.37315,-71.0156,MT,5360
3954198,Nevado Quillca,-14.36667,-71.01222,MT,5360
3954205,Nevado Condorcota,-14.35944,-71.02694,MT,5425
3954215,Cerro Coteloma,-14.33997,-71.02959,MT,5078
3954234,Cerro Pajototoca,-15.09985,-71.33076,MT,5050
3954265,Cerro Yurac Suncuy,-15.0715,-71.35794,MT,5004
3954266,Cerro Quellua,-15.09127,-71.3808,MT,5003
3954355,Cerro Gichayani,-14.04417,-71.07583,MT,5029
3954356,Cerro Quispa Yausan,-14.05083,-71.0575,MT,5058
3954357,Cerro Patanca,-14.00917,-71.15222,MT,5200
3954359,Cerro Velacunca,-14.0275,-71.16028,MT,5000
3954360,Cerro Huaynacatente,-14.0275,-71.13472,MT,5048
3954373,Cerro Orco Pununa,-14.01333,-71.19222,MT,5200
3954383,Cerro Chupica,-14.03444,-71.26306,MT,5061
3954444,Cerro Huarisallani,-14.09861,-71.03722,MT,5061
3954445,Cerro Huanaccani,-14.08528,-71.04139,MT,5080
3954447,Cerro Mamalipayoc,-14.06068,-71.0221,MT,5075
3954451,Cerro Huayjuiri,-14.11194,-71.05028,MT,5140
3954452,Cerro Cruzniyoc,-14.11417,-71.07083,MT,5029
3954453,Cerro Chayaracce,-14.12528,-71.06583,MT,5020
3954704,Cerro Chunua,-14.17667,-71.02333,MT,5074
3954848,Cerro Jallhua,-15.55083,-72.19472,MT,5111
3954849,Cerro Jallhua,-15.51889,-72.19222,MT,5145
3954977,Cerro Quehuisa,-15.05639,-71.87472,MT,5039
3954978,Cerro Choquelanza,-15.04747,-71.84899,MT,5099
3954979,Cerro Huaquilla,-15.06167,-71.86222,MT,5065
3954980,Cerro Sonco,-15.06694,-71.87083,MT,5021
3954981,Cerro Yaritayocloma,-15.059,-71.84692,MT,5160
3955016,Cerro Chila,-15.08,-71.74111,MT,5057
3955017,Cerro Cashajata,-15.06389,-71.76194,MT,5005
3955018,Cerro Socona,-15.08647,-71.7555,MT,5145
3955022,Cerro Mamana,-15.07639,-71.82306,MT,5072
3955034,Cerro Illane,-15.12028,-71.865,MT,5109
3955042,Cerro Paco Paco,-15.09911,-71.8463,MT,5127
3955043,Cerro Falda de Huagra,-15.10528,-71.81528,MT,5072
3955044,Cerro Chonta,-15.10389,-71.78833,MT,5015
3955045,Cerro Chiticocha,-15.09306,-71.77722,MT,5041
3955062,Cerro Sallatira,-15.10147,-71.53067,MT,5200
3955090,Cerro Buena Vista,-15.66028,-72.36694,MT,5140
3955110,Cerro Llallahuayoc,-15.60361,-72.40861,MT,5021
3955130,Cerro Atarquipa,-15.5552,-72.395,MT,5100
3955131,Cerro Yanahuara,-15.59796,-72.39125,MT,5270
3955133,Cerro Uchuy Yanahuara,-15.60091,-72.37216,MT,5103
3955143,Cerro Escalera Apacheta,-15.53306,-72.42083,MT,5128
3955149,Cerro Jallhua,-15.51389,-72.44389,MT,5110
3955165,Cerro Filorangra,-15.11889,-71.815,MT,5080
3955166,Cerro Sandro,-15.12583,-71.87278,MT,5070
3955262,Cerro Llanajille,-15.03596,-72.80073,MT,5001
3955265,Cerro Antajarane,-15.02797,-72.76462,MT,5091
3955298,Cerro Ccella Ccella,-15.24861,-71.945,MT,5049
3955304,Cerro Poracota,-15.24881,-72.52999,MT,5007
3955308,Cerro Potosi,-15.27361,-72.53139,MT,5043
3955323,Cerro Choetambo,-15.47917,-72.59694,MT,5018
3955346,Cerro Kerhuanta,-15.30361,-71.86833,MT,5034
3955429,Cerro Andallullo,-15.385,-71.8125,MT,5063
3955525,Cerro Yana Sanca Grande,-15.3975,-72.84111,MT,5055
3955527,Cerro Mismi,-15.48889,-71.65,MT,5597
3955528,Cerro Ajo Colluna,-15.49222,-71.67556,MT,5255
3955529,Cerro Chocoyota,-15.47361,-71.7125,MT,5200
3955531,Cerro Huiscahuisca,-15.49833,-71.75028,MT,5061
3955532,Cerro Mamacanca,-15.47083,-71.76611,MT,5269
3955536,Cerro Anchaca,-15.4576,-71.76942,MT,5360
3955538,Cerro Ccaccansa,-15.47528,-71.78639,MT,5437
3955541,Cerro Jatunpila,-15.47583,-71.82917,MT,5437
3955544,Cerro Surihuiri,-15.46056,-71.86806,MT,5556
3955547,Cerro Tuyunima,-15.49917,-71.93306,MT,5380
3955548,Cerro Sahualke,-15.48695,-71.90474,MT,5395
3955560,Cerro Llimayoc,-15.43679,-71.92214,MT,5236
3955561,Cerro Jencho,-15.44111,-71.92917,MT,5250
3955562,Cerro Aquihuiri,-15.45489,-71.9227,MT,5188
3955564,Cerro Minaspata,-15.43667,-71.87472,MT,5526
3955568,Cerro Ccacsata,-15.44028,-71.82694,MT,5481
3955569,Cerro Cutiti,-15.44861,-71.78667,MT,5395
3955572,Cerro Teclla,-15.45361,-71.77417,MT,5360
3955578,Cerro Jatunchungara,-15.37806,-71.59389,MT,5286
3955595,Cerro Condor Sayana,-15.25083,-72.72722,MT,5093
3955597,Cerro Redondo,-15.26665,-72.74712,MT,5029
3955623,Cerro Mesa Chungara,-15.38972,-71.58694,MT,5000
3955625,Cerro Chungara,-15.39793,-71.59014,MT,5115
3955626,Cerro Ticlla,-15.41092,-71.60785,MT,5072
3955639,Cerro Chuana,-15.41161,-71.73178,MT,5108
3955640,Cerro Cceneccasa,-15.41936,-71.79205,MT,5146
3955642,Cerro Ticllasi,-15.4318,-71.81374,MT,5210
3955645,Cerro Inchurana,-15.40083,-71.84639,MT,5158
3955648,Cerro Minasnioc,-15.39611,-71.86639,MT,5000
3955656,Cerro Huaillaccocha,-15.4215,-71.9107,MT,5100
3955658,Cerro Huallatane,-15.40389,-71.91611,MT,5000
3955661,Cerro Lipa,-15.41,-71.93694,MT,5069
3955887,Cerro Pucapuca,-15.41111,-72.97389,MT,5055
3956114,Cerro Ancosupa,-15.23124,-71.01567,MT,5085
3956227,Cerro Condorsayana,-15.22433,-71.23796,MT,5054
3956230,Cerro Macara,-15.23381,-71.19118,MT,5138
3956432,Cerro Sullullumpo,-15.28007,-71.24248,MT,5059
3956455,Cerro Inchupalla,-15.25883,-71.22824,MT,5089
3956459,Cerro Yanapanuelo,-15.25591,-71.19058,MT,5009
3956520,Cerro Japu Apacheta,-15.27421,-71.08127,MT,5032
3956528,Cerro Yacajo,-15.31417,-71.11278,MT,5009
3956543,Cerro Puca Puncho,-15.27511,-71.03049,MT,5000
3956552,Cerro Aguillane,-15.24389,-71.05528,MT,5000
3956554,Cerro Atahualpa Mocho,-15.20425,-71.05855,MT,5000
3956555,Cerro Atahualpa,-15.21528,-71.05111,MT,5111
3956556,Cerro Trebol,-15.23667,-71.03861,MT,5200
3956580,Cerro Suranchaca,-15.26843,-71.05425,MT,5150
3956599,Cerro Huallatira,-15.32389,-71.07944,MT,5052
3956904,Cerro Huacso,-15.36193,-71.13115,MT,5004
3957332,Cerro Huishuillane,-15.44957,-71.39064,MT,5070
3957570,Cerro Condorsalla,-14.79087,-71.95407,MT,5003
3959617,Cerro Huamanripayoc,-12.78111,-75.59694,MT,5000
3959784,Cerro Rasuhuilca,-14.31717,-73.78971,MT,5027
3961172,Cerro Carisla,-12.64917,-75.54833,MT,5072
3961363,Cerro Acopuquio Punta,-12.68389,-75.79083,MT,5018
3961400,Cerro Chontaconaupachi,-12.62648,-75.71323,MT,5095
3961696,Cerro Curpa Punta,-12.54516,-75.80859,MT,5106
3961697,Nevado Huancarcocha,-12.58486,-75.79078,MT,5271
3961701,Cerro Illanta Punta,-12.57583,-75.77611,MT,5060
3961702,Nevado Upianca,-12.54475,-75.78596,MT,5399
3961720,Cerro Chaca Punta,-12.51302,-75.79277,MT,5004
3961727,Cerro Santa Punta,-12.52736,-75.75984,MT,5011
3961741,Cerro Rupasca,-12.55468,-75.75433,MT,5000
3961742,Cerro Chocta,-12.56167,-75.76111,MT,5072
3961746,Cerro Huampuro,-12.56861,-75.72333,MT,5062
3961753,Cerro Paltarumi,-12.58881,-75.72277,MT,5068
3961755,Cerro Amapola,-12.61159,-75.70691,MT,5068
3961777,Cerro Pacuche,-12.54444,-75.66472,MT,5000
3961803,Cerro Auquisonco,-12.57749,-75.61738,MT,5050
3961808,Cerro Misito,-12.51668,-75.61508,MT,5048
3961809,Cerro Sique,-12.5204,-75.6115,MT,5075
3961854,Cerro Aspara,-12.61889,-75.52583,MT,5025
3961855,Cerro Yauray,-12.62438,-75.51938,MT,5112
3963164,Cerro Chanca,-10.54472,-76.88028,MT,5063
3963166,Nevado Milpo,-10.50583,-76.855,MT,5211
3963173,Cerro Mishihuajanan,-10.50972,-76.86028,MT,5100
3963176,Cerro Huayllajirca,-10.53273,-76.85806,MT,5000
3963177,Cerro Chalhuacocha,-10.54694,-76.85472,MT,5153
3963179,Cerro Esgueracocha,-10.53784,-76.83211,MT,5200
3963180,Cerro Pishtac,-10.54111,-76.87306,MT,5095
3963192,Cerro Condor Huayin,-10.55824,-76.83084,MT,5000
3963217,Cerro Cushuropata,-10.52238,-76.71746,MT,5000
3963219,Cerro Piruro,-10.54722,-76.71056,MT,5054
3963296,Cerro Yanaoco,-10.55611,-76.70722,MT,5000
3963297,Cerro Anamaray,-10.57695,-76.70391,MT,5047
3963298,Cerro Jancapata,-10.58748,-76.70495,MT,5029
3963299,Cerro Contadera,-10.58278,-76.7275,MT,5061
3963335,Cerro Huayipinca,-10.55889,-76.865,MT,5085
3963378,Cerro Pucro,-10.61422,-76.86497,MT,5050
3963381,Cerro Chuagi Pahuagui,-10.59611,-76.85972,MT,5059
3963404,Cerro Auquin,-10.58458,-76.86612,MT,5183
3963421,Cerro Yanaogo,-10.60693,-76.7264,MT,5000
3963424,Cerro Puntachacra,-10.59611,-76.68194,MT,5000
3963450,Cerro Leon Pununan,-10.64626,-76.65649,MT,5098
3963456,Cerro Ilimin,-10.62481,-76.70491,MT,5075
3963457,Cerro Quichasnani,-10.63,-76.7075,MT,5019
3963460,Cerro Nazareno,-10.62104,-76.67649,MT,5035
3963479,Cerro Altospata,-10.62611,-76.85556,MT,5059
3963641,Cerro Gollarcocha,-10.7,-76.995,MT,5025
3963659,Cerro Lagpay,-10.71889,-76.77972,MT,5017
3963719,Cerro Joyller,-10.72528,-76.67806,MT,5000
3963723,Cerro Hualmay,-10.72249,-76.61907,MT,5063
3963727,Cerro Ashcac,-10.73627,-76.62439,MT,5103
3963728,Cerro Huaganan,-10.7425,-76.595,MT,5059
3963731,Cerro Canonpunta,-10.75056,-76.63778,MT,5187
3963732,Cerro Chacua Grande,-10.76194,-76.63,MT,5052
3963734,Cerro Jancapata,-10.74944,-76.65917,MT,5039
3963739,Cerro Quenhuaucro,-10.76763,-76.70548,MT,5006
3963794,Cerro Quima Cruz,-10.77,-76.72833,MT,5071
3963799,Cerro Acococha,-10.76861,-76.68194,MT,5000
3963801,Cerro Tabladas,-10.77497,-76.65669,MT,5049
3963806,Cerro Santa Rosa,-10.79639,-76.64472,MT,5074
3963807,Cerro Perurayoc,-10.78391,-76.64092,MT,5098
3963810,Cerro Yanamachay,-10.80703,-76.62207,MT,5000
3963842,Cerro Jahui,-10.845,-76.58833,MT,5136
3963844,Nevado Jahui,-10.85139,-76.58667,MT,5100
3963882,Cerro San Camilo,-10.82917,-76.62333,MT,5195
3963886,Cerro Altos Guangush,-10.83115,-76.64859,MT,5138
3963923,Cerro Antagasha,-10.89972,-76.60806,MT,5006
3963992,Cerro Ccasa,-15.44564,-71.38225,MT,5023
3964030,Cerro Chururuyo,-10.93278,-76.60611,MT,5320
3964046,Cerro Colihuiri,-15.25222,-71.03778,MT,5271
3964071,Cerro Morococha,-10.97806,-76.59056,MT,5193
3964073,Cerro Chururo,-10.97083,-76.61056,MT,5010
3964075,Cerro Pucaorjo,-10.98972,-76.60278,MT,5027
3964077,Cerro Curatiashan,-10.99167,-76.64028,MT,5049
3964122,Cerro Encanto,-10.98887,-76.84013,MT,5157
3964130,Cerro Secchapuiro,-10.97972,-76.86583,MT,5102
3965857,Cerro Sorapata Orjo,-14.21746,-69.79614,MT,5011
3965858,Nevado Huerta Pata,-14.24177,-69.78139,MT,5200
3965866,Cerro Apacheta,-14.28549,-69.80766,MT,5141
3965870,Cerro Pinquiyumi Orjo,-14.27229,-69.84199,MT,5184
3965897,Cerro Parahuin Orjo,-14.23872,-69.95362,MT,5025
3965923,Cerro Yana Orjo,-14.27317,-69.9678,MT,5000
3965989,Cerro Morado,-14.30362,-69.87551,MT,5003
3966128,Nevado Jarjulla,-14.44656,-69.65152,MT,5113
3966614,Cerro Muquie,-11.87972,-76.16056,MT,5098
3966619,Nevado Ojocata,-11.86528,-76.02556,MT,5258
3966622,Cerro Jupay Grande,-11.96944,-76.13333,MT,5054
3966624,Cerro Ocsahualca,-11.9175,-76.10056,MT,5000
3966626,Cerro Amargura,-11.97194,-76.08583,MT,5034
3966654,Cerro Huararrayoc,-11.9525,-76.0875,MT,5296
3966655,Nevado Vicunita,-11.94111,-76.08139,MT,5244
3966669,Nevado Japayoc,-11.86944,-76.07389,MT,5117
3966670,Cerro Paca,-11.8775,-76.09944,MT,5510
3966683,Nevado Paca,-11.89556,-76.06528,MT,5391
3966684,Nevado Sullcon,-11.89139,-76.05167,MT,5550
3966685,Cerro Corihuas,-11.98028,-76.0175,MT,5449
3966686,Cerro Collquepucro,-11.97083,-76.02917,MT,5658
3966687,Cerro Ninaucro,-11.98778,-76.03,MT,5400
3966688,Nevado Manon Uno,-11.955,-76.03917,MT,5270
3966693,Nevado Suiricocha,-11.9475,-76.05333,MT,5500
3966694,Nevado Norma,-11.92651,-76.05548,MT,5508
3966701,Nevado Paccha,-11.92389,-76.07333,MT,5359
3966702,Nevado Panchacoto,-11.91028,-76.05444,MT,5400
3966704,Nevado Antachire,-11.90278,-76.04333,MT,5645
3966706,Nevado Huallacaneha,-11.86972,-76.04333,MT,5426
3966710,Nevado Carbuachuco,-11.85194,-76.05528,MT,5426
3966717,Nevado Yantayo,-11.83194,-76.06306,MT,5300
3966718,Nevado Putca,-11.82944,-76.04639,MT,5367
3966736,Cerro Negro,-11.9975,-76.18694,MT,5015
3966765,Cerro Tormanya,-11.94111,-76.16083,MT,5069
3966766,Cerro Haucaypaca,-11.93667,-76.14139,MT,5320
3966801,Cerro Shirac,-11.82,-76.20083,MT,5172
